Location Number,Location Name,Location ID,Lat,Long,Address,URL
0,"Anchorage, Alaska",1.06E+14,61.2175,-149.8917,,https://www.instagram.com/explore/locations/106199619411091
1,Russian Jack Park,1.06E+14,61.209655,-149.792306,Russian Jack Park,https://www.instagram.com/explore/locations/105651667844614
2,99508,3.85E+14,61.20421129,-149.8127307,,https://www.instagram.com/explore/locations/385296328279309
3,"University of Alaska, Anchorage",1.07E+14,61.19007204,-149.8269318,,https://www.instagram.com/explore/locations/106608902708301
4,"Chena Hot Springs Resort, Fairbanks",6.04E+14,61.2114237,-149.8770151,"56.5 Chena Hot Springs Rd, Anchorage, Alaska",https://www.instagram.com/explore/locations/603715426467303
5,Alaska,1.02E+14,61.2177682,-149.8968619,,https://www.instagram.com/explore/locations/101807378045201
6,Russian Jack Elementary,3.23E+14,61.20098,-149.79891,"4300 E 20th Ave, Anchorage, AK ",https://www.instagram.com/explore/locations/322515704618756
7,Joint Base Elmendorf-Richardson - JBER,1.25E+14,61.257027,-149.79824,,https://www.instagram.com/explore/locations/124523484267930
8,Baluga point,2.33E+15,61.2175,-149.8917,,https://www.instagram.com/explore/locations/2331415500466252
9,"Valdez, Ak",4.14E+14,61.21254002,-149.8786858,"Valdez, Alaska",https://www.instagram.com/explore/locations/414304365272856
10,Alaska - the Last Frontier,4.45E+14,61.172709,-149.9839426,,https://www.instagram.com/explore/locations/445486932260485
11,Goose Lake,1.03E+14,61.1956,-149.821,,https://www.instagram.com/explore/locations/103119483061955
12,University Lake Dog Park,1.58E+14,61.18693809,-149.8023176,"Anchorage, AK",https://www.instagram.com/explore/locations/157889250892596
13,"Eagle River Nature Center, Chugach State Park",3.58E+14,61.16865779,-149.8591608,,https://www.instagram.com/explore/locations/357665837643219
14,Alaska Pacific University,1.06E+14,61.1893,-149.8042,,https://www.instagram.com/explore/locations/105588996141328
15,Campbell Creek Trail,5.66E+14,61.1747419,-149.830001,,https://www.instagram.com/explore/locations/566337493409177
16,Cartee Softball Fields,1.23E+14,61.21307017,-149.7904384,"Anchorage, AK",https://www.instagram.com/explore/locations/123479104368309
17,Van Gogh Anchorage,1.10E+14,61.21551,-149.89439,"600 W 7th Ave, Anchorage, Alaska",https://www.instagram.com/explore/locations/110020691566841
18,Merrill Field,1.11E+14,61.2136,-149.844,2331 Merrill Field Dr,https://www.instagram.com/explore/locations/110613572323050
19,Elmendorf Air Force Base,1.39E+14,61.23528693,-149.7653285,5955 Zeamer Ave,https://www.instagram.com/explore/locations/138853256143177
20,Cheney Lake,1.39E+14,61.20241566,-149.7601748,2245 Baxter Rd.,https://www.instagram.com/explore/locations/139332716102887
21,"Whittier Boat Harbor , Alaska",3.73E+14,61.20519596,-149.8595711,"Anchorage, Alaska",https://www.instagram.com/explore/locations/372881966097067
22,Alaska Helicopter Tours,5.21E+14,,,,https://www.instagram.com/explore/locations/520968907987658
23,Alaska Native Medical Center,3.07E+14,61.18250421,-149.8003087,"4315 Diplomacy Drive, Anchorage, Alaska",https://www.instagram.com/explore/locations/307271179295897
24,Russian Jack Springs Park,2.00E+14,61.2069,-149.787,"Anchorage, Alaska",https://www.instagram.com/explore/locations/200490390137390
25,Russian Jack Springs Golf Course,1.03E+14,61.20613927,-149.7886752,"1600 Lidia Selkregg Ln, Anchorage, AK",https://www.instagram.com/explore/locations/103019193378614
26,Kenai Fjords Tours,1.04E+15,61.218577,-149.857614,"1304 E 4th Ave , Anchorage, AK",https://www.instagram.com/explore/locations/1038768516143341
27,Bethel Regional High School,1.38E+15,61.2005,-149.805,,https://www.instagram.com/explore/locations/1380888408900263
28,Taku Lake,1.47E+14,61.15144928,-149.8805087,"Anchorage, AK",https://www.instagram.com/explore/locations/146798262025400
29,ChangePoint Alaska,1.34E+11,,,,https://www.instagram.com/explore/locations/134315951779
30,Arctic Industrial,2.93E+14,61.161942,-149.896196,"Arctic Industrial, Anchorage, Alaska",https://www.instagram.com/explore/locations/292521964181775
31,Kincaid Park Coastal Trail,1.97E+14,61.159317,-149.899451,"Anchorage, AK",https://www.instagram.com/explore/locations/196520960877133
32,The Dome,1.98E+14,61.16229984,-149.9021213,"6501 Changepoint Dr, Anchorage, Alaska",https://www.instagram.com/explore/locations/197927633564453
33,Wilderness Express Train,3.45E+14,61.17087,-149.92023,"1900 Premier Ct, Anchorage, AK",https://www.instagram.com/explore/locations/344951472548627
34,Aleyaska Resort,2.87E+14,61.1737549,-149.8848327,"Anchorage, AK",https://www.instagram.com/explore/locations/286980708711938
35,Connors Bog Dog Park,1.67E+14,61.17150277,-149.9393335,"5404 Jewel Lake Rd, Anchorage, AK",https://www.instagram.com/explore/locations/167259073314598
36,Kincaid Park,1.03E+14,61.15416667,-150.0555556,,https://www.instagram.com/explore/locations/103193929734122
37,Ted Stevens Anchorage International Airport,1.23E+14,61.17450354,-149.9828141,"5000 W International Airport Rd, Anchorage, AK",https://www.instagram.com/explore/locations/123415964372614
38,Tony Knowles Coastal Trail,1.09E+14,61.20928532,-149.9197059,"Anchorage, Alaska",https://www.instagram.com/explore/locations/108710265829084
39,CrossFit Northern Exposure,1.51E+15,61.163724,-149.887864,"6239 Mackay St, Anchorage, Alaska",https://www.instagram.com/explore/locations/1511479739067753
40,"Denali Industrial Park, Anchorage, Alaska",3.68E+14,61.1647738,-149.9056025,"Denali Industrial Park, Anchorage, Alaska",https://www.instagram.com/explore/locations/367527716666529
41,Uncle Herb's,1.76E+14,61.16193,-149.89511,"6511 Artic Spur Rd., Anchorage, Alaska",https://www.instagram.com/explore/locations/176051616472952
42,"Spenard, Anchorage",1.42E+15,61.18861111,-149.9063889,,https://www.instagram.com/explore/locations/1418728848394040
43,Lost Lake Seward Alaska,3.55E+14,61.15516481,-149.8835059,"Seward, Alaska",https://www.instagram.com/explore/locations/354555774699877
44,DeLong Lake,1.31E+14,61.16377487,-149.9547103,,https://www.instagram.com/explore/locations/130929253617793
45,"Midtown, Anchorage",9.75E+14,61.19205802,-149.9117257,,https://www.instagram.com/explore/locations/975447602520229
46,Napa Distribution Center,1.35E+14,61.16413563,-149.9025351,6220 Electron Dr,https://www.instagram.com/explore/locations/134962146547299
47,Downtown Anchorage,2.19E+14,61.217888,-149.885992,"  B St , Downtown Anchorage",https://www.instagram.com/explore/locations/218846098759095
48,Penguin Peak,8.07E+14,61.16737162,-149.8960374,Anchorage,https://www.instagram.com/explore/locations/807463875943877
49,Denali Hwy,1.15E+14,61.14916428,-149.9312577,,https://www.instagram.com/explore/locations/115329841950210
50,Cca Motorsport,2.81E+14,61.16664,-149.8972,"5941 Arctic Blvd., Anchorage, AK",https://www.instagram.com/explore/locations/280705809339595
51,Taku Campbell Creek Park,1.51E+14,61.15171564,-149.880311,,https://www.instagram.com/explore/locations/150797834932128
52,Hair of The Dog,1.05E+14,61.16092769,-149.8996381,"1000 W. 66th Ct. , Anchorage, Alaska",https://www.instagram.com/explore/locations/104641131036775
53,Campbell Elementary,1.52E+15,61.15483,-149.90153,"7206 Rovenna St, Anchorage, AK ",https://www.instagram.com/explore/locations/1516988095222517
54,Mchugh Peak,4.51E+14,61.15433,-149.85234,Chugach Mountains,https://www.instagram.com/explore/locations/451450485669173
55,"The Ponds, Anchorage, Alaska",3.77E+14,61.16114611,-149.8509551,,https://www.instagram.com/explore/locations/376712439072758
56,"Abbott-Loop, Anchorage",4.25E+14,61.14717915,-149.8191481,,https://www.instagram.com/explore/locations/424750887733078
57,"glacier cruise,seward Alaska",2.23E+14,61.15223307,-149.8562166,,https://www.instagram.com/explore/locations/223409054378294
58,Doggie Dog World,1.50E+15,61.165291,-149.848993,"6130 Burlwood St, Anchorage, Alaska",https://www.instagram.com/explore/locations/1502274039989781
59,Rilke Schule German School of Arts and Sciences,4.75E+14,61.16207652,-149.8486506,"1846 E 64th Ave, Anchorage, Alaska",https://www.instagram.com/explore/locations/474956825914128
60,Eagle Towing,8.96E+14,61.16459285,-149.84865,"Anchorage, Alaska",https://www.instagram.com/explore/locations/896171380468553
61,F and H Fitness Stu-ANC,1.45E+15,61.16251,-149.85498,"6407  Brayton Dr, Anchorage, AK",https://www.instagram.com/explore/locations/1448586931952877
62,Alaska Axe Co,1.00E+14,61.15896988,-149.8357544,2520 E 68th Ave ,https://www.instagram.com/explore/locations/100321964823520
63,That Feeling Co,1.06E+14,61.16674,-149.84997,"1721 E Dowling Road, Anchorage, Alaska",https://www.instagram.com/explore/locations/105547717573271
64,Figarelle's Fitness LLC,1.13E+14,,,,https://www.instagram.com/explore/locations/112992038731943
65,"Lake Otis Blvd, Anchorage, Alaska",4.52E+14,61.16797148,-149.8393356,,https://www.instagram.com/explore/locations/451591218217573
66,Dowling And Old Seward,1.45E+14,61.16955411,-149.8526667,,https://www.instagram.com/explore/locations/144973338923593
67,"Little Tree, Anchorage, Alaska",4.58E+14,61.171818,-149.847893,,https://www.instagram.com/explore/locations/457886617587912
68,St Elizabeth Catholic School BASC,3.57E+14,61.16402655,-149.8333067,,https://www.instagram.com/explore/locations/356913047682600
69,Borro Gamefarm,8.94E+14,61.16182105,-149.8527758,"Anchorage, Alaska",https://www.instagram.com/explore/locations/893917987390658
70,Polaris K-12 School,1.43E+15,61.164733,-149.853819,"6200 Ashwood St, Anchorage, Alaska",https://www.instagram.com/explore/locations/1433881116861195
71,Alaska Yellow Cab,1.61E+14,61.16002693,-149.8585206,"6707 Greenwood St., Anchorage, AK",https://www.instagram.com/explore/locations/161456773878145
72,Selfie WRLD Alaska,1.03E+14,61.14442025,-149.8671112,"800 E Dimond Blvd suite 166, Anchorage, Alaska",https://www.instagram.com/explore/locations/103167175430300
73,Dimond Center,1.35E+14,61.1431,-149.868,800 E Dimond Blvd,https://www.instagram.com/explore/locations/135171099849254
74,99507,3.86E+14,61.15119277,-149.7791286,,https://www.instagram.com/explore/locations/386441648165607
75,Smokejumper Trailhead,4.72E+14,61.1586307,-149.8012679,,https://www.instagram.com/explore/locations/471559516251010
76,Alaska Botanical Garden,1.39E+14,61.17694444,-149.76,,https://www.instagram.com/explore/locations/138519659510874
77,Campbell Tract,1.44E+14,61.17800187,-149.8227608,,https://www.instagram.com/explore/locations/144127345732449
78,Turnagain Arm Trail,2.49E+15,61.17479875,-149.8331758,,https://www.instagram.com/explore/locations/2491491760867080
79,Campbell Airstrip Trailhead,4.28E+14,61.16864367,-149.7644314,,https://www.instagram.com/explore/locations/428263840543265
80,BLM Campbell Tract,1.23E+14,61.1586787,-149.8011746,,https://www.instagram.com/explore/locations/123351501146614
81,Abbott Loop Community Park,1.76E+14,61.14788392,-149.8018583,"Anchorage, AK",https://www.instagram.com/explore/locations/176117505755427
82,La Cabana De Regis - Smith,1.16E+14,61.16116635,-149.8053575,,https://www.instagram.com/explore/locations/115587310079958
83,Powerline Pass Trail,1.92E+14,61.16372022,-149.718434,,https://www.instagram.com/explore/locations/192494877531153
84,Chikaloon Alaska,4.60E+14,61.14794057,-149.8209642,,https://www.instagram.com/explore/locations/460387570647029
85,Glen Alps Trailhead,1.81E+15,61.10329515,-149.6833738,,https://www.instagram.com/explore/locations/1809952659131997
86,Flattop Mountain,1.43E+14,61.08850854,-149.6660614,,https://www.instagram.com/explore/locations/143434325673741
87,"Campbell Park, Anchorage",1.62E+15,61.17618648,-149.8178198,,https://www.instagram.com/explore/locations/1621938768045566
88,Little O'Malley Peak,1.83E+14,61.10691726,-149.6451992,,https://www.instagram.com/explore/locations/182807851769104
89,Service High School,1.08E+14,61.1386,-149.781,5577 Abbott Rd,https://www.instagram.com/explore/locations/107780199245137
90,Scenic Byway- Turnagain Arm,1.34E+14,60.99957795,-149.6495543,,https://www.instagram.com/explore/locations/134110373370088
91,"Chugach Foothills, Anchorage, Alaska",1.16E+14,61.18417138,-149.7289068,,https://www.instagram.com/explore/locations/116431121846534
92,"Basher, Anchorage",1.62E+15,61.16520582,-149.7251213,,https://www.instagram.com/explore/locations/1618178561792185
93,"Eklutna Lake, Ak",2.70E+14,61.24862968,-149.6954935,,https://www.instagram.com/explore/locations/270036899761724
94,"Mid Hillside, Anchorage",1.69E+15,61.1140551,-149.7681537,,https://www.instagram.com/explore/locations/1685644581672295
95,Hilltop Ski Area,1.10E+14,61.1408,-149.745,,https://www.instagram.com/explore/locations/109574585726892
96,Far North Bicentennial Park,1.06E+14,61.19101,-149.88638,,https://www.instagram.com/explore/locations/106295549428711
97,Arctic Valley Ski Area. Rendezvous,2.62E+14,61.18272,-149.72764,"Pioneer Dr, Anchorage, AK",https://www.instagram.com/explore/locations/262087117546736
98,"Hope, Alaska",1.08E+14,60.9194,-149.642,,https://www.instagram.com/explore/locations/108187979202238
99,"Hillside East, Anchorage",2.91E+14,61.13081931,-149.7306704,,https://www.instagram.com/explore/locations/291016297735283
100,South Bivouac Trail Head,1.53E+14,61.15324974,-149.7379178,,https://www.instagram.com/explore/locations/152988964799526
101,Stuckagain Heights,5.62E+14,61.162985,-149.69367,"Stuckagain Heights, Anchorage, Alaska",https://www.instagram.com/explore/locations/561896210493083
102,Near Point,1.42E+14,61.1545175,-149.6524439,,https://www.instagram.com/explore/locations/142178615816103
103,Hatcher Pass Lodge,1.05E+14,61.16427,-149.70185,"6160 Farpoint Dr, Anchorage, Alaska",https://www.instagram.com/explore/locations/104940549548686
104,"Tuxedni Park, Anchorage, Alaska",2.96E+14,61.16181691,-149.7055084,,https://www.instagram.com/explore/locations/295710640548295
105,Prospects Heights Trail Head,2.16E+14,61.1382083,-149.7117569,,https://www.instagram.com/explore/locations/215788285122761
106,Flat Top Trail,1.74E+14,61.10456391,-149.6845423,"13229 Glen Alps Rd, Anchorage, Alaska",https://www.instagram.com/explore/locations/173900759341334
107,Fort Richardson,1.06E+14,61.270166,-149.680822,,https://www.instagram.com/explore/locations/105528746146579
108,Powerline Trail Upper Hillside,1.07E+14,61.15259062,-149.7155987,,https://www.instagram.com/explore/locations/106631236079369
109,Hillside Ski Trails,1.21E+14,61.14006861,-149.7796016,,https://www.instagram.com/explore/locations/120800584711732
110,Chugach State Park and Turnagain Arm,1.90E+15,61.04066957,-149.7836494,"Anchorage, AK",https://www.instagram.com/explore/locations/1902794826670365
111,F45 Training Midtown Anchorage,1.14E+15,61.18109657,-149.8972937,"4307 Arctic Blvd, Anchorage, AK , USA, Anchorage, Alaska",https://www.instagram.com/explore/locations/1140839836050565
112,"Willow Crest, Anchorage, Alaska",3.72E+14,61.18246445,-149.9024935,,https://www.instagram.com/explore/locations/371644589579275
113,Vitus Energy,1.04E+14,61.18061,-149.89876,810 W. Tudor Road,https://www.instagram.com/explore/locations/103684152149178
114,Bird Ridge Trailhead,1.21E+15,61.18677,-149.90346,"Chugach Way, Anchorage, AK",https://www.instagram.com/explore/locations/1212572278803467
115,Moose Flats,3.37E+14,61.18184501,-149.8989121,"Girdwood, Alaska",https://www.instagram.com/explore/locations/336906416392325
116,Salty Dawg Saloon Homer Alaska,2.41E+14,61.1884251,-149.9121433,"Anchorage, AK",https://www.instagram.com/explore/locations/241273953281061
117,"North Star, Anchorage",1.47E+15,61.18328156,-149.9005748,,https://www.instagram.com/explore/locations/1474611549518630
118,Pop Carr Park,1.45E+14,61.17955768,-149.9005926,4499 Arctic Blvd,https://www.instagram.com/explore/locations/145353978827887
119,The Bear Paw Bar & Grill,1.10E+14,61.18018709,-149.8851845,"190 W Tudor Rd, Anchorage",https://www.instagram.com/explore/locations/109772690746963
120,Willow Crest Elementary,5.56E+14,61.18017197,-149.9031213,"1004 W Tudor Rd, Anchorage, AK ",https://www.instagram.com/explore/locations/555539501256056
121,Papaya Tree,5.17E+14,61.18243898,-149.89748,"Anchorage, Alaska",https://www.instagram.com/explore/locations/517394245418756
122,Chilkoot Charlie's,5.18E+14,61.18233,-149.9302,"Spenard Rd, Anchorage, AK",https://www.instagram.com/explore/locations/518026095381326
123,Century 16 and XD,1.85E+14,61.18909734,-149.8792298,"301 East 36th Ave., Anchorage",https://www.instagram.com/explore/locations/185082731537201
124,The Arctic Rec Center,1.32E+14,61.1765651,-149.8966966,4855 Arctic Blvd,https://www.instagram.com/explore/locations/132410297315516
125,Wasilla Creek Boardwalk Trail,1.00E+14,61.1746334,-149.900253,5990 E Nelson Rd,https://www.instagram.com/explore/locations/100212328447081
126,Anchorage Moose Lodge - LOOM 1534 WOTM 139,6.04E+14,61.18202588,-149.8962638,"4211 Arctic Blvd, Anchorage, Alaska",https://www.instagram.com/explore/locations/603510126496573
127,"Grandview Heights, Anchorage, Alaska",2.43E+14,61.1800055,-149.896102,"Grandview Heights, Anchorage, Alaska",https://www.instagram.com/explore/locations/243441675781565
128,Arctic Blvd & Tudor Rd,4.90E+14,61.18078962,-149.897855,,https://www.instagram.com/explore/locations/490178981493840
129,Downtown Spenard,2.89E+14,61.195373,-149.905427,"Downtown Spenard, Anchorage, Alaska",https://www.instagram.com/explore/locations/288935017874036
130,Koot's,1.69E+15,61.1983035,-149.9046516,2435 Spenard Rd,https://www.instagram.com/explore/locations/1685850205026753
131,My Way Out,1.16E+14,61.187923,-149.897714,"Anchorage, AK",https://www.instagram.com/explore/locations/116126815115655
132,United Physical Therapy,4.36E+14,61.18147782,-149.8964521,"701 Sesame St Ste 101, Anchorage, AK",https://www.instagram.com/explore/locations/435679939962989
133,Mexico Lindo Mini Market,1.55E+15,61.18101,-149.90613,"1201 W Tudor Rd, Anchorage, Alaska",https://www.instagram.com/explore/locations/1545686032144487
134,Ancorage Airport,6.73E+14,61.1819174,-149.8883981,Indian,https://www.instagram.com/explore/locations/673400789408686
135,Point Warnsof,3.75E+14,61.18104458,-149.8495075,,https://www.instagram.com/explore/locations/374836909230484
136,Station 4,1.60E+14,61.18165608,-149.8503901,,https://www.instagram.com/explore/locations/159947984021003
137,"University Park, Anchorage, Alaska",2.89E+14,61.18293854,-149.8466464,E 42nd Ave,https://www.instagram.com/explore/locations/289159217866877
138,Waldron Lake,1.51E+14,61.17817361,-149.8488769,,https://www.instagram.com/explore/locations/150517108293191
139,"Lake Otis Park, Anchorage, Alaska",5.35E+14,61.18666458,-149.8513121,,https://www.instagram.com/explore/locations/535148339832825
140,Wickersham Park,1.10E+14,61.17650855,-149.8458416,,https://www.instagram.com/explore/locations/110478249006191
141,Helen Louise McDowell Sanctuary,1.65E+14,61.18207812,-149.8587406,,https://www.instagram.com/explore/locations/164806806912302
142,Tudor Bingo Center,7.05E+14,61.18008369,-149.8560904,"1436 E Tudor Rd, Anchorage, Alaska",https://www.instagram.com/explore/locations/704620219579580
143,Alaska Anchorage Seawolves,95865956018,61.19064,-149.81812,"3211 Providence Dr, Anchorage, AK",https://www.instagram.com/explore/locations/95865956018
144,Cornerstone Animal Hospital,1.44E+14,61.180308,-149.851425,"1600 E. Tudor Rd., Anchorage, Alaska",https://www.instagram.com/explore/locations/143938508973414
145,Bread & Brew Alaska,4.20E+14,61.18035381,-149.8538129,"1450 East Tudor Road, Suite 100, Anchorage, Alaska",https://www.instagram.com/explore/locations/419586951721711
146,Bazel Switzerland,6.77E+14,61.1925684,-149.8592595,,https://www.instagram.com/explore/locations/676746425689836
147,Madly Tattered,1.61E+15,61.18120035,-149.8553747,"1515 East Tudor Road Suite 6, Anchorage, Alaska",https://www.instagram.com/explore/locations/1605856846374480
148,SFC Primary Care Clinic,1.14E+14,61.18138024,-149.799755,4320 Diplomacy Dr,https://www.instagram.com/explore/locations/113993628698619
149,Alsaka Native Medical Hospital,1.54E+14,61.1827,-149.80009,4315 Diplomacy Drive,https://www.instagram.com/explore/locations/154100461290322
150,SCF Traditional Healing Clinic,1.73E+14,61.1815014,-149.8004449,,https://www.instagram.com/explore/locations/173215342778580
151,Southcentral Foundation Pediatrics,3.67E+14,61.18148371,-149.8008458,,https://www.instagram.com/explore/locations/367243940007486
152,SCF OB/GYN,1.14E+14,61.18157308,-149.7996811,,https://www.instagram.com/explore/locations/114158078673296
153,ANMC Dental Clinic,1.04E+14,61.1825827,-149.7991259,4321 Diplomacy Drive,https://www.instagram.com/explore/locations/103559067942180
154,Anmc Oncology,1.89E+14,61.18222218,-149.8067343,,https://www.instagram.com/explore/locations/189373271160631
155,ANMC Radiology/imaging,1.10E+14,61.18309246,-149.7999684,4315 Diplomacy Drive,https://www.instagram.com/explore/locations/109551634134257
156,Southcentral Foundation,7.70E+14,61.184167,-149.794239,"4145 Tudor Centre Dr, Anchorage, Alaska",https://www.instagram.com/explore/locations/770352596668346
157,Orthopedics At Alaska Native Medical Center,1.42E+14,61.18274559,-149.7994635,,https://www.instagram.com/explore/locations/142147742557347
158,ANMC Patient Housing,5.89E+14,61.18403974,-149.8005891,4001 Tudor Centre Drive,https://www.instagram.com/explore/locations/588640921342247
159,A New Day ABA,1.07E+14,61.18483041,-149.7944641,Municipality of Anchorage,https://www.instagram.com/explore/locations/107393954943860
160,South Central Foundation Health Education Department,4.60E+14,61.18141,-149.79982,"4320 Diplomacy Dr , Anchorage, AK",https://www.instagram.com/explore/locations/460097534176233
161,Dr Kathryn and Kevin Gottlieb Building,5.33E+14,61.1824562,-149.7970569,4441 Diplomacy Drive ,https://www.instagram.com/explore/locations/533012040535331
162,Alaska Native Tribal Health Consortium,1.24E+14,61.18245774,-149.8066358,"4000 Ambassador Dr, Anchorage, AK",https://www.instagram.com/explore/locations/124319784261152
163,Kaladi Brothers Coffee,1.03E+14,61.18142479,-149.7515013,6901 East Tudor Rd.,https://www.instagram.com/explore/locations/103194291476287
164,Cook Inlet Native Headstart,4.14E+14,61.182049,-149.750627,,https://www.instagram.com/explore/locations/414376195317669
165,Subway,1.85E+14,61.18142479,-149.7515013,"6901 E Tudor Rd, Anchorage, AK",https://www.instagram.com/explore/locations/184936654872247
166,"Scenic Park Estates, Anchorage, Alaska",4.77E+14,61.18479955,-149.7375388,,https://www.instagram.com/explore/locations/476992372345690
167,"Patterson Parkway, Anchorage, Alaska",4.79E+14,61.18109323,-149.747355,,https://www.instagram.com/explore/locations/478864178811751
168,Kaladis,1.36E+14,61.18142479,-149.7515013,6901 east tudor,https://www.instagram.com/explore/locations/136363163108998
169,Park & Play Indoor Playground,1.32E+14,61.18145671,-149.751463,,https://www.instagram.com/explore/locations/131586263576223
170,"Century Village, Anchorage, Alaska",2.34E+14,61.18437,-149.753108,,https://www.instagram.com/explore/locations/234032910057953
171,Cook Inlet Native Head Start,4.25E+14,61.18181,-149.75038,"6901 E Tudor Rd., Anchorage, Alaska",https://www.instagram.com/explore/locations/425162544330475
172,Southcentral Elders Program,1.62E+14,61.18193878,-149.7515316,6901 E Tudor Rd,https://www.instagram.com/explore/locations/161600007221107
173,Baxter Bog Trail,1.50E+14,61.1930347,-149.7554636,"Baxter Rd, Anchorage, AK",https://www.instagram.com/explore/locations/150147725054882
174,Beluga Point,2.69E+14,61.22382213,-149.7342674,"Anchorage, Alaska",https://www.instagram.com/explore/locations/268710073242394
175,A Lot of Places,5.06E+14,61.22109033,-149.734069,,https://www.instagram.com/explore/locations/505723256142296
176,"Rainbow, Anchorage, Alaska",3.25E+14,61.1997345,-149.900434,,https://www.instagram.com/explore/locations/325232424242268
177,ReThink Home,4.15E+14,61.1989178,-149.90012,"927 W Fireweed Ln, Anchorage, Alaska",https://www.instagram.com/explore/locations/414606048746419
178,Holy Rosary Academy Alaska,1.78E+14,61.19837,-149.9015,"1010 W. Fireweed Lane, Anchorage, Alaska",https://www.instagram.com/explore/locations/177934485939265
179,Westchester Lagoon Nature Trail,1.61E+14,61.20348031,-149.9048209,"Spenard Road & 19th Ave, Anchorage, Alaska",https://www.instagram.com/explore/locations/161303067280022
180,Valley of the Moon Park,1.41E+14,61.20514,-149.89453,"W 17th Ave, Anchorage, AK",https://www.instagram.com/explore/locations/141065352595865
181,Chilcoot Charlies,1.36E+14,61.1981062,-149.9048533,2435 Spenard Rd,https://www.instagram.com/explore/locations/136024556606370
182,West Anchorage High School,1.03E+14,61.20105817,-149.916882,1700 Hillcrest Dr,https://www.instagram.com/explore/locations/103104673062433
183,Enlighten Alaska,1.88E+14,61.19716,-149.905788,"2600 Spenard Rd, Anchorage, Alaska",https://www.instagram.com/explore/locations/187820538512830
184,House of Transformation Beauty Center,1.04E+14,61.19868518,-149.90567,"2400 Spenard Rd Suite 100, Anchorage, Alaska",https://www.instagram.com/explore/locations/103894112004404
185,Big Brothers Big Sisters of Alaska,3.28E+11,61.19922,-149.903408,"1057 W Fireweed Ln, Ste 202, Anchorage, Alaska",https://www.instagram.com/explore/locations/327717083033
186,Strands Salon,1.77E+14,61.19911401,-149.8998551,"885 W Fireweed Ln, Anchorage, Alaska",https://www.instagram.com/explore/locations/177223772367487
187,"Guadalupe Church,",1.84E+14,61.19280016,-149.9012131,,https://www.instagram.com/explore/locations/183930821617344
188,Frosted Axe Throwing,6.92E+14,61.1985789,-149.8889711,"409 W Fireweed Lane, Anchorage, Alaska",https://www.instagram.com/explore/locations/691702041246690
189,Tufo House Restaurant,4.75E+14,61.19873267,-149.8912413,,https://www.instagram.com/explore/locations/474502972601123
190,American Legion Jack Henry Post 1,1.50E+15,61.19830903,-149.8995911,"840 W Fireweed Ln, Anchorage, Alaska",https://www.instagram.com/explore/locations/1497262760489955
191,Star Alaska,3.82E+14,61.19918,-149.90327,"1057 W Fireweed Ln, Ste 230, Anchorage",https://www.instagram.com/explore/locations/382421358503601
192,"South Addition, Anchorage",1.89E+15,61.19070146,-149.8981189,,https://www.instagram.com/explore/locations/1892994620926016
193,Westchester Lagoon Frisbee Golf Course,2.03E+14,61.20497503,-149.9054939,"Anchorage, AK",https://www.instagram.com/explore/locations/202645266420356
194,Steller Secondary School,1.12E+14,61.197687,-149.893336,,https://www.instagram.com/explore/locations/111664232184037
195,jackies place restaurant,4.26E+11,61.19652974,-149.9067335,"2636 Spenard Rd (across from bears tooth ), Anchorage, Alaska",https://www.instagram.com/explore/locations/426469710524
196,Westchester Lagoon,1.51E+14,61.20558925,-149.9198413,1824 W 15th Ave,https://www.instagram.com/explore/locations/151008831581516
197,Important Work,1.45E+15,61.19992,-149.9026,"1041 W 23rd Ave, Anchorage, AK",https://www.instagram.com/explore/locations/1453387631630484
198,North Star Elementary,9.70E+14,61.19968576,-149.8939763,"605 W Fireweed Ln, Anchorage, AK ",https://www.instagram.com/explore/locations/970189372996874
199,Arctic Bed & Breakfast,1.21E+14,61.196641,-149.897614,"2607 Arctic Blvd, Anchorage, AK",https://www.instagram.com/explore/locations/120633764614384
200,Chester Creek Greenbelt Park,1.51E+14,61.2019444,-149.8583333,,https://www.instagram.com/explore/locations/150931354923415
201,Chester Creek Trail,3.03E+14,61.20305864,-149.8795081,,https://www.instagram.com/explore/locations/303447040487246
202,Anchorage Museum,1.16E+14,61.2161,-149.885,,https://www.instagram.com/explore/locations/115790641802766
203,Anchorage Senior Activity Center,1.01E+14,61.20279855,-149.8576258,"1300 E 19th Ave, Anchorage, Alaska",https://www.instagram.com/explore/locations/101371886586254
204,Redoubt Bay Lodge,8.82E+14,61.198375,-149.853794,"2463 Cottonwood St , Anchorage, AK",https://www.instagram.com/explore/locations/882457435142036
205,"Fairview Neighborhood in Anchorage, Alaska 99501",2.48E+14,61.2067703,-149.856233,,https://www.instagram.com/explore/locations/248451385265213
206,East Chester/Woodside Park,1.46E+14,61.2019549,-149.8628896,,https://www.instagram.com/explore/locations/145764392115226
207,The Dalton Highway,4.77E+14,61.19778006,-149.8388067,"Livengood, Alaska",https://www.instagram.com/explore/locations/476606455692686
208,Mountain View,1.69E+15,61.224469,-149.815826,"Mountain View, Anchorage",https://www.instagram.com/explore/locations/1689689637926177
209,Peak 3,6.09E+14,61.19321451,-149.8528,,https://www.instagram.com/explore/locations/609378849125602
210,"Eastridge, Anchorage, Alaska",1.98E+14,61.20493885,-149.8452033,,https://www.instagram.com/explore/locations/197565407045384
211,Alaska Regional Hospital,2.72E+11,61.2106395,-149.8283635,"2801 Debarr Road, Anchorage",https://www.instagram.com/explore/locations/271551474351
212,Moose's Tooth,1.52E+11,61.19039476,-149.8689677,"3300 Old Seward Hwy, Anchorage, AK",https://www.instagram.com/explore/locations/152408937717
213,AK Child and Family,1.98E+14,61.1997106,-149.845726,"2315 Maplewood St, Anchorage",https://www.instagram.com/explore/locations/198392997469661
214,"Foxhall, Anchorage, Alaska",5.28E+14,61.19849309,-149.7521929,,https://www.instagram.com/explore/locations/527802097247082
215,99504,5.84E+14,61.20500117,-149.7429058,,https://www.instagram.com/explore/locations/584442911662574
216,Our Lady of Guadalupe,1.34E+14,61.2009201,-149.7476044,"2220 Paxson Dr, Anchorage",https://www.instagram.com/explore/locations/133986326934174
217,"Nunaka Valley, Anchorage, Alaska",3.73E+14,61.20270948,-149.7690323,,https://www.instagram.com/explore/locations/373205749429403
218,Arnold L Muldoon Park,1.27E+14,61.19500218,-149.7389777,,https://www.instagram.com/explore/locations/126944267351187
219,Anchorage Christian Schools,1.52E+15,61.19655,-149.75919,"6575 E Northern Lights Blvd, Anchorage, AK ",https://www.instagram.com/explore/locations/1522148601361690
220,Chanshtnu Muldoon Park,1.93E+15,61.20958808,-149.7323958,1301 Muldoon Rd,https://www.instagram.com/explore/locations/1929665470622851
221,"Chester Valley, Anchorage, Alaska",4.52E+14,61.20292683,-149.7437133,,https://www.instagram.com/explore/locations/452202104822803
222,"Nunaka Valley park ""moose hill""",1.70E+14,61.20426592,-149.7670624,,https://www.instagram.com/explore/locations/169593949728959
223,"Collegegate East, Anchorage, Alaska",1.17E+14,61.1986445,-149.765311,,https://www.instagram.com/explore/locations/116541471835476
224,Hatchers Pass,2.99E+14,61.19922842,-149.9500869,,https://www.instagram.com/explore/locations/299401286817710
225,Scenic Seward Highway,3.35E+14,61.2247617,-149.7442302,"Anchorage, AK",https://www.instagram.com/explore/locations/334741290239882
226,Centennial Park,1.47E+14,61.2286601,-149.7236734,8300 Glenn Hwy,https://www.instagram.com/explore/locations/146589592026857
227,Bartlett High School,1.04E+14,61.23208013,-149.734422,1101 Golden Bear Dr,https://www.instagram.com/explore/locations/104045589630624
228,Muldoon Area,2.97E+14,61.197512,-149.7336737,,https://www.instagram.com/explore/locations/296847850507739
229,The Hotel Captain Cook,1.64E+14,61.2178938,-149.900538,"939 W 5th Ave, Anchorage, Alaska",https://www.instagram.com/explore/locations/164294520257692
230,In Anchorage Alaska,1.88E+14,61.217999,-149.904282,"420 L St, # 99508, Anchorage, Alaska",https://www.instagram.com/explore/locations/187549738055076
231,The Crow's Nest,2.06E+14,61.217838,-149.8997175,"939 W 5th Ave, Anchorage, Alaska",https://www.instagram.com/explore/locations/205739526186510
232,"Dutch Harbor, Bering Sea",1.67E+15,61.2183,-149.899,,https://www.instagram.com/explore/locations/1670554443272402
233,Mount baldy Alaska,4.30E+14,61.2183,-149.899,,https://www.instagram.com/explore/locations/430327257391604
234,49th State Brewing - Anchorage,1.75E+15,61.21976926,-149.8958493,"717 W 3rd Ave, Anchorage, Alaska",https://www.instagram.com/explore/locations/1745922835628864
235,Ship Creek Small Boat Dock,1.40E+14,61.21884341,-149.8975205,,https://www.instagram.com/explore/locations/140079059462961
236,"Cook's Inlet, Anchorage",1.75E+14,61.21931,-149.90182,310 K St,https://www.instagram.com/explore/locations/174769402580576
237,Stephan Fine Arts,1.80E+14,61.21802,-149.90062,"939  West 5th Avenue, Anchorage, Alaska",https://www.instagram.com/explore/locations/179832405431296
238,Glacier BrewHouse,77567414741,61.21785,-149.89643,"737 W 5th Ave, Ste 110, Anchorage, Alaska",https://www.instagram.com/explore/locations/77567414741
239,Snow City Cafe,1.41E+14,61.21846,-149.90297,"1034 W 4th Ave, Anchorage, AK",https://www.instagram.com/explore/locations/140942439259125
240,Denai'na Convention Center,4.72E+14,61.21518129,-149.8944716,,https://www.instagram.com/explore/locations/472165212845227
241,Nesbett Courthouse,1.02E+14,61.21872534,-149.8985995,"825 W 4th Ave, Anchorage, AK",https://www.instagram.com/explore/locations/102291786496720
242,Dallas Seavey Racing Kennels - Willow Alaska,1.64E+15,61.2175353,-149.9036697,"Anchorage, Alaska",https://www.instagram.com/explore/locations/1636515186568104
243,Black Bear Campground,2.74E+14,61.218055,-149.900278,"Anchorage, Alaska",https://www.instagram.com/explore/locations/273775803071006
244,"Glacier Bay, National Park-Alaska",2.95E+14,61.2175,-149.8917,,https://www.instagram.com/explore/locations/294682088106491
245,Dena'ina Civic and Convention Center,1.39E+14,61.215,-149.894,,https://www.instagram.com/explore/locations/138913269469287
246,Adagio Day Spa,1.54E+15,61.21826,-149.90182,"404 K St, Anchorage, Alaska",https://www.instagram.com/explore/locations/1535976720006295
247,Iditarod Headquarters Wasilla,2.66E+14,61.21873602,-149.9030408,,https://www.instagram.com/explore/locations/266382426771912
248,Simon And Seaforts Anchorage,1.90E+14,61.2181029,-149.90459,,https://www.instagram.com/explore/locations/190044854461797
249,Fletcher's,3.65E+14,61.21781452,-149.8999388,"939 W 5th Ave, Anchorage, Alaska",https://www.instagram.com/explore/locations/365057963607247
250,Delaney Park Strip,1.36E+14,61.2133,-149.902,,https://www.instagram.com/explore/locations/135796936453323
251,Egan Center,1.11E+14,61.2179,-149.892,"Anchorage, Alaska",https://www.instagram.com/explore/locations/111355345581339
252,Seward Wildlife Cruises,1.64E+14,61.21744,-149.89119,"442 W 5th Ave, Anchorage, AK",https://www.instagram.com/explore/locations/164357570256509
253,Downtown 4th Ave,1.32E+14,61.2184295,-149.8888425,,https://www.instagram.com/explore/locations/131989976847140
254,Loretta French Sports Complex,4.19E+14,61.21778975,-149.9000392,"18800 Old Glenn Hwy, Anchorage, Alaska",https://www.instagram.com/explore/locations/419341041443192
255,Peggy's Airport Cafe,2.19E+14,61.2177758,-149.8503705,"1675 E. 5th Ave, Anchorage, Alaska",https://www.instagram.com/explore/locations/218995071562121
256,Mush Inn Motel,1.33E+14,61.218734,-149.848515,333 Concrete St,https://www.instagram.com/explore/locations/133313820104093
257,Eagle River Nature Trail,2.78E+14,61.21246038,-149.8730697,"Anchorage, Alaska",https://www.instagram.com/explore/locations/278448145597974
258,Anchorage Jail,1.75E+14,61.21902798,-149.8563466,1400 East 4th Avenue,https://www.instagram.com/explore/locations/174582469243983
259,McKinley Explorer train to Denali Park,3.06E+14,61.22200117,-149.8832706,,https://www.instagram.com/explore/locations/306064049490556
260,"Punch Bowl Glacier, Alaska",1.40E+14,61.2172851,-149.8712843,"Gambell St, Anchorage, Alaska",https://www.instagram.com/explore/locations/140282776447189
261,Merrill Field Inn,1.54E+14,61.21825219,-149.8472154,"420 Sitka St, Anchorage, AK",https://www.instagram.com/explore/locations/154187137952166
262,Chaz Limited Collision Express,1.33E+14,61.21782157,-149.849201,"1801 E 5th Ave, Anchorage, Alaska",https://www.instagram.com/explore/locations/133292226724721
263,East High School,5.92E+14,61.234449,-149.864124,"4129 Bullard Ave , Anchorage, AK",https://www.instagram.com/explore/locations/591953271002907
264,Cook Inlet Pre-Trial,1.13E+14,61.21895512,-149.8572617,"Anchorage, AK",https://www.instagram.com/explore/locations/113257188764008
265,Alyeska Helicopters,1.39E+14,61.21705916,-149.8507897,"1710 E 5th Ave, Anchorage, Alaska",https://www.instagram.com/explore/locations/139410119466980
266,Anchorage Memorial Park,1.36E+14,61.2152,-149.8761,,https://www.instagram.com/explore/locations/136395506397086
267,Clark Middle School,8.10E+14,61.22296842,-149.8117783,"150 Bragaw Street, Anchorage, AK ",https://www.instagram.com/explore/locations/809582062436626
268,Mirror Lake,3.21E+14,61.2175,-149.8917,,https://www.instagram.com/explore/locations/321470978764679
269,Moutain View,1.97E+14,61.2256508,-149.7984174,,https://www.instagram.com/explore/locations/196506167073834
270,You Beauty Lounge,6.82E+14,61.18023,-149.89229,510 W Tudor Road,https://www.instagram.com/explore/locations/681621402263869
271,Alaska Museum of Science and Nature,1.21E+14,61.22519,-149.80787,"201 N Bragaw St, Anchorage, Alaska",https://www.instagram.com/explore/locations/120615934617160
272,Artic Valley Road,3.11E+14,61.2223404,-149.7932954,,https://www.instagram.com/explore/locations/311221815598485
273,Davis Park,1.52E+14,61.22708,-149.79394,408 N Pine St,https://www.instagram.com/explore/locations/151886511492292
274,Dave Rose Park,1.97E+14,61.220858,-149.795859,"201 Lane St, Anchorage, AK",https://www.instagram.com/explore/locations/196968027015927
275,Hula Hands Restaurant,5.91E+14,61.22592,-149.7939,4630 Mountain View Drive,https://www.instagram.com/explore/locations/591185948012225
276,Polar Bear Park,1.49E+14,61.215626,-149.7926822,801 Pine Street,https://www.instagram.com/explore/locations/148519452008084
277,Ericstore,1.01E+14,61.21917,-149.80161,4226 Ross Court,https://www.instagram.com/explore/locations/101473042716551
278,Grow North Farm Mountain View,2.36E+15,61.22437322,-149.813151,3601 Mountain View Drive,https://www.instagram.com/explore/locations/2356372031351654
279,St Anthony's Catholic Church,1.20E+14,61.2137239,-149.8036152,825 Klevin St,https://www.instagram.com/explore/locations/120219271328213
280,"Elmrich Villas, Anchorage, Alaska",4.78E+14,61.22068058,-149.7522467,,https://www.instagram.com/explore/locations/477767658910371
281,Saint Innocent Russian Orthodox Cathedral,4.80E+14,61.21832,-149.75486,"401 Turpin St, Anchorage, Alaska",https://www.instagram.com/explore/locations/479667492228708
282,"Turpin, Anchorage, Alaska",5.41E+14,61.21512871,-149.7597204,,https://www.instagram.com/explore/locations/541401305875274
283,Lara Lake,1.11E+14,61.22146,-149.74663,Anchorage Alaska ,https://www.instagram.com/explore/locations/111407648371564
284,"Muldoon Road, Anchorage.",3.56E+14,61.2288561,-149.7426631,,https://www.instagram.com/explore/locations/356391431090502
285,"Creekside Park, Anchorage, Alaska",1.64E+14,61.21486546,-149.739654,E 6th Ave,https://www.instagram.com/explore/locations/164101900380578
286,Elmendorf Gym,1.74E+14,61.22085653,-149.7406455,"Anchorage, AK",https://www.instagram.com/explore/locations/173517169335671
287,Creekside Park Elementary,8.44E+14,61.21640043,-149.7420705,"7500 E 6th Ave, Anchorage, AK ",https://www.instagram.com/explore/locations/844437452274957
288,Bartlett High School,1.78E+15,61.23272655,-149.7346781,"1101 N Muldoon Rd, Anchorage, AK",https://www.instagram.com/explore/locations/1780726978847800
289,Crumbl Cookies,1.06E+14,61.22877,-149.74033,"1118 North Muldoon Road, Unit 145",https://www.instagram.com/explore/locations/106407128759666
290,Tikahtnu 16 Theatre,1.52E+14,61.22667956,-149.7408092,"1102 North Muldoon Rd, Anchorage, AK",https://www.instagram.com/explore/locations/151911248171710
291,Shadow Moses Island,3.06E+14,61.222367,-149.746638,111 N Lane St,https://www.instagram.com/explore/locations/305668079575381
292,Yeiri Nails & Spa,2.19E+15,61.21936924,-149.73318,"361 muldoon rd, Anchorage, Alaska",https://www.instagram.com/explore/locations/2186676261582677
293,Glenn Highway,1.10E+14,61.305529,-149.582291,"Eagle River, Alaska",https://www.instagram.com/explore/locations/109989719053171
294,"Eagle River, Alaska",1.08E+14,61.32157,-149.56712,,https://www.instagram.com/explore/locations/108264132534659
295,Moose Run Golf Course,1.36E+14,61.23334044,-149.6673438,"27000 Arctic Valley Road, Anchorage, Alaska",https://www.instagram.com/explore/locations/136184193124373
296,Alaska Native Heritage Center,36670628470,,,,https://www.instagram.com/explore/locations/36670628470
297,Fort Richardson Joint Base Elmendorf-Richardson,6.10E+14,61.2543423,-149.6926512,"600 Richardson Dr, Anchorage",https://www.instagram.com/explore/locations/610243069351630
298,Crow Pass Trail,1.98E+14,61.32637902,-149.5700552,"32750 Eagle River Rd, Eagle River, Alaska",https://www.instagram.com/explore/locations/198410636940984
299,Port of Anchorage,1.09E+14,61.24027778,-149.8861111,,https://www.instagram.com/explore/locations/108801472477498
300,"Ship Creek, Alaska",1.48E+14,61.2261,-149.893,"Anchorage, Alaska",https://www.instagram.com/explore/locations/148126535204206
301,Holland Anerica Cruise Ship,1.94E+14,61.239259,-149.888824,,https://www.instagram.com/explore/locations/194315524778905
302,Ship Creek Overlook,2.53E+14,61.22347128,-149.8858075,"Anchorage, Alaska",https://www.instagram.com/explore/locations/253336998922994
303,Alaska Anchorage,3.34E+14,61.19400742,-149.9607524,,https://www.instagram.com/explore/locations/333784796634921
304,Denali Star,2.34E+14,61.22156713,-149.8902327,"Fairbanks, Alaska",https://www.instagram.com/explore/locations/234191693288691
305,The Port,1.51E+14,61.23272,-149.8877503,"2000 Anchorage Port Road, Anchorage, AK",https://www.instagram.com/explore/locations/151066641617842
306,"Turnagain, Anchorage",1.45E+15,61.1955381,-149.9336804,,https://www.instagram.com/explore/locations/1445684509073761
307,Anchorage Depot,1.37E+14,61.22166667,-149.8905556,,https://www.instagram.com/explore/locations/137443509609371
308,Ship Creek Boat launch,1.31E+14,61.22519347,-149.9050791,Western Dr,https://www.instagram.com/explore/locations/130588953665123
309,"Six Mile Lake, Elmendorf AFB",2.44E+14,61.23384523,-149.8510568,"Anchorage, AK",https://www.instagram.com/explore/locations/243733926042089
310,Orion Elementary School,2.00E+14,61.23451439,-149.8594649,"5112 Arctic Warrior Dr, Anchorage, Alaska",https://www.instagram.com/explore/locations/200222040158116
311,Paxton Memorial Park,1.27E+14,61.23639068,-149.8566551,,https://www.instagram.com/explore/locations/127071870673048
312,Portage Wildlife Refuge,2.63E+14,61.23539256,-149.8649311,,https://www.instagram.com/explore/locations/263007027151707
313,Elmendorf Military Base,1.01E+14,61.2418784,-149.805929,"Anchorage, AK",https://www.instagram.com/explore/locations/100617610028617
314,Joint Base Elmendorf–Richardson,6.88E+14,61.25138889,-149.8063889,5955 Zeamer Ave,https://www.instagram.com/explore/locations/687946071295239
315,"176th Wing, Alaska Air National Guard",2.42E+14,61.2396722,-149.808993,"8515 Saville Ave, Anchorage, Alaska",https://www.instagram.com/explore/locations/241630529280605
316,Mountain View Elementary School,2.03E+14,61.23176457,-149.8069237,"4005 McPhee Ave, Anchorage, Alaska",https://www.instagram.com/explore/locations/203469643421674
317,JBER Military & Family Centers,1.18E+14,61.24237,-149.80247, 600 Richardson Dr or 8535 Wewak Dr.,https://www.instagram.com/explore/locations/118236504858185
318,Elmendorf AFB (JBER) FAM Camp,2.00E+14,61.23670993,-149.7507265,,https://www.instagram.com/explore/locations/199724823406313
319,673d Medical Group,1.20E+14,61.23696769,-149.7467934,5955 Zeamer Ave,https://www.instagram.com/explore/locations/120384755324409
320,Texas Roadhouse,1.41E+15,61.22955,-149.7409,"1154 N. Muldoon Road, Anchorage",https://www.instagram.com/explore/locations/1408761686051710
321,Tikahtnu Common Areas,3.70E+14,61.22987749,-149.745743,,https://www.instagram.com/explore/locations/369904773136836
322,Eagle River Nature Conservatory Center Anchorage Alaska,2.66E+14,61.2302752,-149.7422242,,https://www.instagram.com/explore/locations/266322277073047
323,Jber Hospital,8.06E+14,61.23526194,-149.7446282,"Anchorage, AK",https://www.instagram.com/explore/locations/806190322891642
324,AFMS-Joint Base Elmendorf-Richardson-673d Medical Group,1.84E+14,61.23528044,-149.7447576,"5955 Zeamer Ave, Anchorage, Alaska",https://www.instagram.com/explore/locations/183582345012060
325,Cottonwood Park,1.48E+14,61.24016198,-149.6968358,"5th St and Arctic Valley Rd, Fort Richardson",https://www.instagram.com/explore/locations/148085125217171
326,"South Fork Valley Trail, Eagle River, Ak",8.75E+14,61.30030604,-149.4928563,,https://www.instagram.com/explore/locations/875018765858476
327,Otter Lake at JBER,7.51E+14,61.28908159,-149.7376737,,https://www.instagram.com/explore/locations/751315768381594
328,"Bethel, Alaska",1.06E+14,60.7897,-161.779,,https://www.instagram.com/explore/locations/106181876079678
329,"Napaskiak, Alaska",1.06E+14,60.70526,-161.76647,,https://www.instagram.com/explore/locations/105597346140091
330,"Kuiggayagaq, Alaska",2.95E+14,60.72378934,-161.7744128,,https://www.instagram.com/explore/locations/295109613985991
331,"Napakiak, Alaska",1.14E+14,60.6933,-161.973,,https://www.instagram.com/explore/locations/113970011946519
332,Napaskiak Airport,1.35E+14,60.7028,-161.778,,https://www.instagram.com/explore/locations/135453909819910
333,Sandpit,8.00E+14,60.7897,-161.779,,https://www.instagram.com/explore/locations/799867490165187
334,Napaskiak School,3.50E+14,60.7078407,-161.7608802,,https://www.instagram.com/explore/locations/350420625093238
335,St. Jacob's Church,3.96E+14,60.70833333,-161.7630556,,https://www.instagram.com/explore/locations/396246360502136
336,Beautiful Bethel,2.06E+15,,,,https://www.instagram.com/explore/locations/2064002453722657
337,The Kuskokwim River,7.51E+14,60.80735103,-161.8213337,"Front Street, Bethel, Alaska",https://www.instagram.com/explore/locations/750756748597018
338,Hangar Lake,1.11E+14,60.7934349,-161.7639423,,https://www.instagram.com/explore/locations/110698432318054
339,Fishcamp,2.04E+14,60.79054093,-161.7911492,"Bethel, Alaska",https://www.instagram.com/explore/locations/204348499607710
340,Yukon Kuskokwim Delta,3.53E+14,60.7897,-161.779,,https://www.instagram.com/explore/locations/353276881945537
341,Tundra Ridge,4.63E+14,60.80739352,-161.8165407,,https://www.instagram.com/explore/locations/462983120382650
342,Bethel Airport,1.10E+14,60.77861111,-161.8372222,Chief Eddy Hoffman Hwy,https://www.instagram.com/explore/locations/110181812366682
343,Qugcuun Memorial School,9.75E+14,60.72237792,-161.7697827,"115 Village Road, Oscarville, Alaska",https://www.instagram.com/explore/locations/975435069166225
344,Alaska Airlines - Bethel Airport (BET),1.49E+14,,,,https://www.instagram.com/explore/locations/149254108475601
345,Kasayulie,2.26E+14,60.7719847,-161.8810649,,https://www.instagram.com/explore/locations/225830024095165
346,Kisaralik River,1.45E+15,60.76970414,-161.8743298,,https://www.instagram.com/explore/locations/1449099975416150
347,Yupiit Piciryarait Cultural Center,3.15E+14,60.79073,-161.7715,,https://www.instagram.com/explore/locations/315495548645715
348,KYUK,3.58E+14,60.79122153,-161.7733028,"640 Radio St, Bethel, Alaska",https://www.instagram.com/explore/locations/358157087544895
349,Alaska Airlines - Bethel Airport BET,1.54E+14,60.78324159,-161.8395963,"3517 Chief Eddie Hoffman Hwy, Bethel, Alaska",https://www.instagram.com/explore/locations/153513151452758
350,Kuskokwim Campus UAF,1.31E+14,60.79152416,-161.7756341,"Box 368, Bethel, Alaska",https://www.instagram.com/explore/locations/131064616946204
351,Yukon Kuskokwim Fitness Center,2.15E+14,60.79552521,-161.7914059,"267 Akiachak Dr, Bethel, Alaska",https://www.instagram.com/explore/locations/214595658942178
352,Grant Aviation,1.88E+14,60.78976316,-161.8321372,,https://www.instagram.com/explore/locations/188041194557782
353,Studio 1,1.04E+14,60.76989095,-161.7224126,"401 Ridgecrest Drive, Bethel, Alaska",https://www.instagram.com/explore/locations/103592845266340
354,Yukon-Kuskokwim Health Corporation,1.45E+14,60.7886,-161.785,"Bethel, Alaska",https://www.instagram.com/explore/locations/144722742208899
355,Suurvik Cinema,1.01E+14,60.79288,-161.751679,"903 Chief Eddie Hoffman Highway, Bethel, Alaska",https://www.instagram.com/explore/locations/101055141426472
356,Lower Kuskokwim School District,9.34E+14,60.80223829,-161.7729465,"1004 Ron Edwards Memorial Drive, Bethel, Alaska",https://www.instagram.com/explore/locations/933751750041181
357,Yuut Elitnaurviat,3.31E+11,,,,https://www.instagram.com/explore/locations/330813967955
358,Swanson’s Alaska LLC,1.65E+15,60.79277026,-161.7542605,"830 River Street, Bethel, Alaska",https://www.instagram.com/explore/locations/1645111119146349
359,Fili's Pizza,3.71E+14,60.79737996,-161.7760143,"110 Osage St, Bethel, Alaska",https://www.instagram.com/explore/locations/371487869716628
360,Yukon Delta National Wildlife Refuge,1.04E+15,60.78955245,-161.7802262,"807 Chief Eddie Hoffman Highway; PO Box 346, Bethel, Alaska",https://www.instagram.com/explore/locations/1039425076133926
361,Windy Willow Hair and Nail Salon,2.03E+15,60.79519622,-161.7863417,"258 Akiak, Bethel, Alaska",https://www.instagram.com/explore/locations/2034978180072488
362,Alba's Coffee Shop,3.82E+14,60.79401652,-161.7697096,"401 Ridgecrest Dr, Bethel, Alaska",https://www.instagram.com/explore/locations/381977008514322
363,Bethel Moravian Church,7.24E+14,60.7937945,-161.7656424,"331  3rd Ave, Bethel, Alaska",https://www.instagram.com/explore/locations/724038337723816
364,Kuskokwim Consortium Library,3.69E+11,60.79063961,-161.7739988,"420 State Hwy, Bethel, AK",https://www.instagram.com/explore/locations/369063786506
365,Bethel Evangelical Covenant Church,1.02E+11,60.79188767,-161.7697498,"165 Chief Eddie Hoffman Way, Bethel, Alaska",https://www.instagram.com/explore/locations/101573053883
366,Gladys Jung Elementary,8.77E+14,60.80429854,-161.7710991,"1007 Ron Edwards Memorial Dr, Bethel, AK ",https://www.instagram.com/explore/locations/877046505668918
367,Long House Bethel Hotel,1.56E+14,60.79472712,-161.7583004,751 3rd Ave,https://www.instagram.com/explore/locations/155775927816333
368,"Oscarville, Alaska",1.08E+14,60.721274,-161.76844,,https://www.instagram.com/explore/locations/108243302532876
369,Immaculate Conception Church,1.81E+14,60.79315615,-161.7545817,"775 2nd Ave, Bethel, AK",https://www.instagram.com/explore/locations/180692318623126
370,Bethel Hospital,1.18E+14,60.78818165,-161.7849594,"Bethel, AK",https://www.instagram.com/explore/locations/118271798249145
371,LKSD Bethel Regional high school,2.49E+14,60.79222222,-161.7558333,,https://www.instagram.com/explore/locations/249485568432439
372,Yute Commuter Service,1.87E+15,60.78206858,-161.8408048,"3551 Chief Eddie Hoffman Hwy, Bethel, Alaska",https://www.instagram.com/explore/locations/1873266326318535
373,Rich & Alice's Sunset Spot,1.54E+15,60.80734667,-161.79371,,https://www.instagram.com/explore/locations/1536144306630745
374,Seawall Bethel,1.52E+15,60.7904067,-161.7714392,,https://www.instagram.com/explore/locations/1521679637896851
375,Tobacco Shop,1.70E+14,60.7941335,-161.7517533,"960  3rd Ave, Bethel, AK",https://www.instagram.com/explore/locations/170437916960006
376,The Three Tortillas,1.14E+14,60.7936795,-161.7523502,"Bethel, Alaska",https://www.instagram.com/explore/locations/113586013695425
377,Fox Air,1.10E+14,60.79429,-161.76088,"3341 N Apron Rd, Bethel, Alaska",https://www.instagram.com/explore/locations/110032210793713
378,Bethel Seaplane Base,1.35E+14,60.7819,-161.743,,https://www.instagram.com/explore/locations/134754589890479
379,St. Sophia Orthodox Church,2.26E+15,60.80628111,-161.7874861,,https://www.instagram.com/explore/locations/2259226664334756
380,Yvonne Beach,1.72E+15,60.79421,-161.76078,"1360 Calista Drive, Bethel, AK",https://www.instagram.com/explore/locations/1716884945236575
381,AC Bethel,1.02E+14,60.7943209,-161.7696596,135 Ridgecrest St.,https://www.instagram.com/explore/locations/102310731583706
382,99559,6.16E+14,60.85080804,-161.7238704,,https://www.instagram.com/explore/locations/615766978499730
383,Red Basket,4.12E+14,60.79483077,-161.7584989,751 3rd Ave,https://www.instagram.com/explore/locations/411691568851540
384,Three Step Mountain,1.06E+14,60.7823277,-161.8017016,"Bethel, Alaska",https://www.instagram.com/explore/locations/105979732793955
385,Bethel Aquatic Center. Bethel Ak,5.27E+14,60.79623437,-161.7896199,,https://www.instagram.com/explore/locations/527477840691623
386,Bethel Courthouse,1.47E+14,60.79187824,-161.7718061,,https://www.instagram.com/explore/locations/147340588716628
387,BABA PIZZA & SUB,2.93E+14,60.78403402,-161.7999848,"1725 Chief Eddy Hoffman Hwy, Bethel, Alaska",https://www.instagram.com/explore/locations/293040107473750
388,Bethel Fire Station,3.89E+14,60.79050511,-161.7715734,,https://www.instagram.com/explore/locations/388854647808287
389,"AK  Catholics: Cev'armiut, Marayarmiut, Naparyarmiut",1.71E+14,,,,https://www.instagram.com/explore/locations/171170479750830
390,Alaska Hotel,2.19E+14,60.79536744,-161.7652679,411  4th Ave,https://www.instagram.com/explore/locations/219141534822671
391,White House Bed & Breakfast,4.68E+14,60.8003066,-161.7586626,,https://www.instagram.com/explore/locations/468488633346313
392,"Kwethluk, Alaska",1.07E+14,60.8023,-161.419,,https://www.instagram.com/explore/locations/107423432620902
393,"Fairbanks, Alaska",1.06E+14,64.8431,-147.7238,,https://www.instagram.com/explore/locations/105702359464339
394,Fort Wainwright,1.13E+14,64.828608,-147.62309,,https://www.instagram.com/explore/locations/112669305412118
395,Tanana Lakes Recreation Area,1.06E+15,64.79947132,-147.7364648,,https://www.instagram.com/explore/locations/1063026727171038
396,"North Pole, Alaska",1.06E+14,64.751,-147.352,,https://www.instagram.com/explore/locations/105998039430784
397,Alaska,1.09E+14,64.8431,-147.7238,,https://www.instagram.com/explore/locations/109188177131365
398,Chena Hot Springs,3.76E+14,64.88785619,-147.6312134,,https://www.instagram.com/explore/locations/375917993146641
399,Arctic Circle Alaska,2.00E+15,64.84361111,-147.7230556,"Coldfoot, Alaska",https://www.instagram.com/explore/locations/1995429217402614
400,Chena Hot Springs Resort,8.66E+14,64.84357807,-147.7202347,"551 2nd Ave, Fairbanks, AK",https://www.instagram.com/explore/locations/866007076850504
401,"Santa's House - North Pole, AK",1.73E+14,64.83755926,-147.8234549,,https://www.instagram.com/explore/locations/173301802687837
402,"Tanana Lakes Fairbanks, Ak",3.05E+14,64.83720998,-147.7430661,,https://www.instagram.com/explore/locations/305168726310494
403,Alaska Artic Circle,1.49E+14,64.8330137,-147.8473644,"Fairbanks, Alaska",https://www.instagram.com/explore/locations/148940358650405
404,Ice Museum,3.90E+14,64.84368462,-147.7178013,510-598 2nd Ave,https://www.instagram.com/explore/locations/389601437744072
405,"Dalton Highway, Alaska Route 11",1.78E+14,64.84287831,-147.7698883,"Fairbanks, Alaska",https://www.instagram.com/explore/locations/177633445581612
406,Fountainhead Antique Auto Museum,1.94E+11,64.86046882,-147.7140082,"212 Wedgewood Dr, Fairbanks, Alaska",https://www.instagram.com/explore/locations/194024748369
407,Charlevoix Michigan,1.01E+14,64.80547396,-147.6877112,,https://www.instagram.com/explore/locations/101142573367757
408,Creamers Field Trails,1.94E+14,64.84109112,-147.8573488,,https://www.instagram.com/explore/locations/194336334032894
409,Creamer's Field Migratory Waterfowl Refuge,1.39E+14,64.8708,-147.733,,https://www.instagram.com/explore/locations/138955772794851
410,"South Cushman, Fairbanks, Alaska",4.35E+14,64.8276585,-147.7041655,,https://www.instagram.com/explore/locations/435306366516865
411,South Side,2.32E+14,64.82271738,-147.7292791,2605 barnette street,https://www.instagram.com/explore/locations/232404133603080
412,Alaska Railroad Aurora Winter Train,1.21E+14,64.85138562,-147.7404121,,https://www.instagram.com/explore/locations/120763181330988
413,Carlson Center,4.16E+14,64.8046532,-147.6946919,,https://www.instagram.com/explore/locations/416267695061237
414,South Cushman Outdoor Shooting Range,1.16E+14,64.79380891,-147.6965507,"Fairbanks, AK",https://www.instagram.com/explore/locations/116370655091470
415,Arctic National Wildlife Refuge,1.38E+14,64.83938875,-147.7071474,,https://www.instagram.com/explore/locations/138283512868883
416,Alaska Axe Co. Axe-Throwing,1.09E+14,64.81460727,-147.7457285,3501 Lathrop Street,https://www.instagram.com/explore/locations/108711490933590
417,University of Alaska Fairbanks,6828054843,64.85846068,-147.8295893,"505 South Chandalar Drive, Fairbanks, Alaska",https://www.instagram.com/explore/locations/6828054843
418,Pioneer Park,1.15E+14,64.839076,-147.774788,,https://www.instagram.com/explore/locations/115131938499630
419,"Chena, Alaska",1.43E+14,64.7956,-147.952,,https://www.instagram.com/explore/locations/143388225673506
420,"College, Alaska",1.07E+14,64.8483,-147.827,,https://www.instagram.com/explore/locations/107410409288084
421,"Ester, Alaska",1.12E+14,64.8557,-147.978,,https://www.instagram.com/explore/locations/112389562105486
422,Fairbanks International Airport,1.27E+14,64.81758651,-147.8671834,"6450 Airport Way, Fairbanks, AK",https://www.instagram.com/explore/locations/127003674012987
423,"Chena Ridge, Alaska",5.07E+14,64.7989,-148.024,,https://www.instagram.com/explore/locations/506663916104967
424,Riverboat Discovery,1.01E+14,64.83008328,-147.8660762,"1975 Discovery Dr, Fairbanks, Alaska",https://www.instagram.com/explore/locations/100858119958816
425,UA Museum of the North Store,1.04E+14,64.85799,-147.8369,"1962 Yukon Drive, Fairbanks, Alaska",https://www.instagram.com/explore/locations/103542444948568
426,Pike's Waterfront Lodge,95998821883,64.83120073,-147.8478617,"1850 Hoselton Rd, Fairbanks, Alaska",https://www.instagram.com/explore/locations/95998821883
427,"Arctic Circle, Dalton Highway",5.09E+14,64.88626541,-147.9638672,"Mile 115 Dalton Highway, Fairbanks, Alaska",https://www.instagram.com/explore/locations/509207545772962
428,Trail Breaker Kennel,1.69E+14,64.80916977,-147.9095475,"5880 Airport Industrial Rd, Fairbanks, Alaska",https://www.instagram.com/explore/locations/169097193104829
429,Ester Dome,1.43E+14,64.8797222,-148.0530556,,https://www.instagram.com/explore/locations/142543735777672
430,Discovery 3 Steamboat,3.79E+14,64.80078264,-147.9144283,,https://www.instagram.com/explore/locations/378567918845535
431,"Rosie Creek, Fairbanks, Alaska",3.79E+14,64.76951025,-148.0460524,,https://www.instagram.com/explore/locations/378646235554365
432,"Just Short of Magic, LLC",4.60E+14,64.83847309,-147.8436976,"5157 Chena Hot Springs Rd, Fairbanks, Alaska",https://www.instagram.com/explore/locations/460374837372960
433,Ester Dome Observatory,3.16E+14,64.877182,-148.054566,"Ester, AK",https://www.instagram.com/explore/locations/316370718713983
434,Ice Alaska,1.32E+11,64.84733299,-147.8064242,"1800 College Road, Fairbanks, Alaska",https://www.instagram.com/explore/locations/132449955327
435,Artic Circle Sign,3.88E+14,64.83618427,-147.7591108,"Tolsona, Alaska",https://www.instagram.com/explore/locations/388206518002234
436,Alaska Airlines - Fairbanks Int'l Airport FAI,4.08E+14,64.81757706,-147.8678387,"6450 Airport Way, Fairbanks, Alaska",https://www.instagram.com/explore/locations/408120705892102
437,Pedro Dome,1.18E+14,64.83425295,-147.9056829,,https://www.instagram.com/explore/locations/117958164921431
438,Calypso Farm and Ecology Center,73416046977,64.839896,-148.134072,"4780 Old Nenana Hwy , Fairbanks, Alaska",https://www.instagram.com/explore/locations/73416046977
439,Growden Memorial Park Home of the Fairbanks Goldpanners,1.38E+15,64.8253399,-147.7617838,"Wilbur St, Fairbanks, AK",https://www.instagram.com/explore/locations/1379977025435743
440,Pump House Restaurant,1.55E+14,64.83136528,-147.8846829,"796 Chena Pump Rd,",https://www.instagram.com/explore/locations/154822771207765
441,Coldfoot Airport,2.32E+14,64.82597,-147.77265,"2301 Peger Rd, Fairbanks, AK",https://www.instagram.com/explore/locations/232445907243493
442,University of Alaska at Fairbanks,2.78E+14,64.856096,-147.842487,,https://www.instagram.com/explore/locations/277851038982702
443,Nenana,1.08E+14,64.83865,-147.772339,,https://www.instagram.com/explore/locations/107803725913783
444,Pinnell Mountain,1.34E+14,64.83334512,-147.7885703,"Fairbanks, Alaska",https://www.instagram.com/explore/locations/133576660018658
445,"Paws For Adventure Fairbanks, Alaska",1.84E+14,64.84945202,-147.8084157,,https://www.instagram.com/explore/locations/183686785058701
446,Pike's Landing,3.33E+14,64.83002327,-147.8488995,"4438 Airport Way, Fairbanks, Alaska",https://www.instagram.com/explore/locations/333045296726274
447,"Santa Claus House - North Pole, Alaska",2.08E+11,64.75471632,-147.3430017,"101 Saint Nicholas Dr, North Pole, AK",https://www.instagram.com/explore/locations/208052351814
448,Santa's Workshop,1.87E+15,64.75319321,-147.3534125,"325 S. Santa Claus Lane, North Pole, Alaska",https://www.instagram.com/explore/locations/1873403116311958
449,Morris Thompson Cultural and Visitors Center,2.25E+14,64.84587631,-147.7119327,"101 Dunkel St, Fairbanks, Alaska",https://www.instagram.com/explore/locations/225017977526267
450,北極～～阿拉斯加,1.70E+15,64.84361111,-147.7230556,,https://www.instagram.com/explore/locations/1702233430091253
451,Ice Nation,9.83E+14,64.751,-147.352,,https://www.instagram.com/explore/locations/983060351802052
452,Artic Tundra,1.61E+14,64.751,-147.352,,https://www.instagram.com/explore/locations/161223507934997
453,Paws for Adventure Sled Dog Kennel,1.21E+14,64.8806708,-147.4528804,"Herning Rd., Fairbanks, Alaska",https://www.instagram.com/explore/locations/121419144597203
454,"North Pole, Alaska",3.49E+14,64.78208833,-147.3536833,,https://www.instagram.com/explore/locations/349040379076520
455,Aurora Ice Bar,4.10E+14,64.82640798,-147.5374669,,https://www.instagram.com/explore/locations/409932205742257
456,Σιβηρια,1.22E+15,64.751,-147.352,,https://www.instagram.com/explore/locations/1219735071453342
457,Birch Hill Ski and Snowboard Area,1.09E+14,64.858358,-147.6195164,"Fairbanks, Alaska",https://www.instagram.com/explore/locations/108943609171709
458,"Eielson Air Force Base, Alaska",1.09E+14,64.6656,-147.101,,https://www.instagram.com/explore/locations/108740982487938
459,"Aurora Borealis, North Pole, Alaska",4.34E+14,64.73553959,-147.3065727,,https://www.instagram.com/explore/locations/434495233277769
460,"Bradway-Clear Creek, North Pole, Alaska",3.47E+14,64.77288413,-147.4756834,"Bradway-Clear Creek, North Pole, Alaska",https://www.instagram.com/explore/locations/347429812022491
461,Arctic Harvest,2.24E+14,64.65449753,-147.148259,"Eielson Farm Road, North Pole, Alaska",https://www.instagram.com/explore/locations/223836534637064
462,"Badger, Alaska",6.88E+14,64.80527778,-147.4102778,"North Pole, Alaska",https://www.instagram.com/explore/locations/687846894591347
463,Antler Academy,1.19E+15,64.75337763,-147.3399371,2 N E 6th Ave,https://www.instagram.com/explore/locations/1187484031296555
464,North Pole High School,1.96E+15,64.74662075,-147.3690242,"601 NPHS Boulevard, North Pole, Alaska",https://www.instagram.com/explore/locations/1957844457579125
465,D'Qar,1.52E+15,64.74878,-147.3525699,,https://www.instagram.com/explore/locations/1523084181352212
466,Reindeer Academy,1.08E+15,64.75333286,-147.3398268,,https://www.instagram.com/explore/locations/1083844535025279
467,Rod's Alaskan Guide Service,1.44E+14,64.79132729,-147.3000821,"3355 Repp Rd, North Pole, Alaska",https://www.instagram.com/explore/locations/144095702626817
468,The Knotty Shop,2.84E+15,64.75407993,-147.3415098,"North Pole, Alaska",https://www.instagram.com/explore/locations/2836481426377437
469,Monterey Lake,1.18E+14,64.81908171,-147.6186374,,https://www.instagram.com/explore/locations/118244384894393
470,Birch Hill Nordic Ski Area,2.00E+14,64.86022,-147.61057,,https://www.instagram.com/explore/locations/199817393382802
471,"Eileson AFB, AK",1.45E+14,64.67390757,-147.1140257,"Eielson Air Force Base, Alaska",https://www.instagram.com/explore/locations/144840578940198
472,Pagoda Restaurant,2.83E+11,64.7588871,-147.3547125,"431 N Santa Claus Ln, North Pole, AK",https://www.instagram.com/explore/locations/282918155854
473,Grapefruit Rocks,4.19E+14,64.82586054,-147.6765411,,https://www.instagram.com/explore/locations/418815108150876
474,"Tamarack Woods, North Pole, Alaska",3.00E+14,64.80945635,-147.5348971,,https://www.instagram.com/explore/locations/299634396822173
475,Eagle Summit,1.53E+15,64.815605,-147.68754,"1016 Lakeview Ter , Fairbanks, AK",https://www.instagram.com/explore/locations/1531312743847166
476,"Wilderness Express Train to Denail Natl Park, Fairbanks Rail Station",1.36E+14,64.85137142,-147.7406294,1745 Johansen expressway,https://www.instagram.com/explore/locations/136113633146211
477,Fairbanks AL,1.62E+14,64.80073269,-147.9139656,,https://www.instagram.com/explore/locations/162139957256204
478,Tanana River - Southern Banks,1.78E+14,64.81067171,-147.8811539,,https://www.instagram.com/explore/locations/177807535669354
479,Tanana Valley State Fair,1.94E+11,64.86534256,-147.7561374,"College road, Fairbanks, Alaska",https://www.instagram.com/explore/locations/193779750723
480,Refine Crisis Stabilization Center,1.07E+14,64.7800841,-147.6324627,"215 Cushman Street, Fairbanks, Alaska",https://www.instagram.com/explore/locations/106849238799420
481,Alaska Log Cabins on the Pond B&B,1.02E+14,64.77963,-147.47864,1673 Volleyball Ct,https://www.instagram.com/explore/locations/101917277866524
482,Black Gold Express,1.30E+15,64.7814049,-147.5060412,"1520 sailor court, North Pole, Alaska",https://www.instagram.com/explore/locations/1297981680215650
483,Clubsomnia,3.84E+14,64.82899627,-147.5363561,,https://www.instagram.com/explore/locations/384497034906075
484,Fairbanks,2.14E+14,64.7993649,-147.5396412,"1525 Henry St, Fairbanks",https://www.instagram.com/explore/locations/213655382696799
485,Denali Village,1.44E+14,64.83393923,-147.6779585,"McKinley Park, Alaska",https://www.instagram.com/explore/locations/144375965594619
486,"Chena Indian Village, Fairbanks, Ak",3.66E+14,64.83999312,-147.7125732,"Fairbanks, AK",https://www.instagram.com/explore/locations/365568933515672
487,Wiseman Alaska,1.24E+14,64.80969354,-147.8523839,"Livengood, Alaska",https://www.instagram.com/explore/locations/124005674362985
488,Indian Camp,3.03E+14,64.80091259,-147.9142018,"Fairbanks, Alaska",https://www.instagram.com/explore/locations/302543537119627
489,"Chena Marina, Fairbanks, Alaska",3.81E+14,64.8123024,-147.921471,,https://www.instagram.com/explore/locations/381351218609727
490,Fish Camp On The Chena,2.17E+14,64.80072983,-147.9155111,,https://www.instagram.com/explore/locations/216623228356036
491,Chena Marina Airport,1.33E+14,64.81584359,-147.90923,Merganser Street,https://www.instagram.com/explore/locations/133467300029241
492,The PWR House,1.06E+14,,,,https://www.instagram.com/explore/locations/106058657443790
493,"South Van Horn, Alaska",1.05E+14,64.80944444,-147.7880556,,https://www.instagram.com/explore/locations/105263039825770
494,"Lakloey Park, North Pole, Alaska",1.31E+14,64.828398,-147.5316582,,https://www.instagram.com/explore/locations/130772860411444
495,Lakloey,1.59E+14,64.82735,-147.5259,1216 Range View Rd,https://www.instagram.com/explore/locations/158707724164151
496,CanoeAlaska,4.75E+14,64.83131162,-147.884296,"1101 Peger Rd, Fairbanks, Alaska",https://www.instagram.com/explore/locations/475432482666634
497,Faith Baptist Church,1.15E+14,64.82719869,-147.8905435,"910 Chena Pump Rd, Fairbanks, Alaska",https://www.instagram.com/explore/locations/115229771833832
498,"Palace Theater, Pioneer Park, Fairbanks",1.44E+15,64.8338783,-147.8492671,,https://www.instagram.com/explore/locations/1444071695850293
499,Black Spruce Dog Sledding,6.65E+14,64.84312756,-147.719881,"3850 Errol Ave, Fairbanks, Alaska",https://www.instagram.com/explore/locations/664586080225661
500,Gold Dredge,1.69E+15,64.83364439,-147.8481085,"1975 Discovery Dr , Fairbanks, AK",https://www.instagram.com/explore/locations/1693560197553647
501,Northern Homes,5.62E+14,64.8266525,-147.7932434,"3077 Davis Rd , Fairbanks, Alaska",https://www.instagram.com/explore/locations/561926550560685
502,Summit Coffee Co.,1.00E+14,64.82695,-147.77948,"2509 Davis Road, Fairbanks, Alaska",https://www.instagram.com/explore/locations/100103304743149
503,"Horst Expediting & Remote Operations, Inc.",1.48E+14,64.82696932,-147.7924137,"3049  Davis Rd , Fairbanks, Alaska",https://www.instagram.com/explore/locations/147713598620414
504,F & H Fitness Studio,2.13E+14,64.8234499,-147.77981,2605 Picket Place,https://www.instagram.com/explore/locations/213410599067557
505,Sophie Station Suites,8.62E+14,64.83151796,-147.8107101,1717 University Ave S,https://www.instagram.com/explore/locations/862416370450306
506,Fairbanks Youth Soccer Fields,1.02E+14,64.82874181,-147.7557525,,https://www.instagram.com/explore/locations/102432089851232
507,Downtown Fairbanks,3.42E+14,64.840973,-147.716884,Downtown Fairbanks!,https://www.instagram.com/explore/locations/342252452521182
508,Yukon River Camp,2.54E+14,64.83934672,-147.7071165,"Lacey St, Fairbanks, AK",https://www.instagram.com/explore/locations/254154078480531
509,Birch Hill,1.03E+14,64.8352,-147.70594,"Fairbanks, AK",https://www.instagram.com/explore/locations/103459429725717
510,Birch Lake,3.10E+14,64.82072,-147.70407,"Milepost 305.2, Richardson Hwy, Fairbanks, AK",https://www.instagram.com/explore/locations/310143195662889
511,Cushman Shooting Range,1.51E+14,64.82180018,-147.7175217,"Fairbanks, AK",https://www.instagram.com/explore/locations/150614321672728
512,The North Pole,1.65E+14,64.84358974,-147.720317,"Fairbanks, AK",https://www.instagram.com/explore/locations/164606566906972
513,Arctic Light Elementary,4.84E+14,64.82719845,-147.6908608,4167 Neely Rd,https://www.instagram.com/explore/locations/483737218400371
514,Antler Arch Webcam At Morris Thompson Center,1.54E+14,64.84644687,-147.7141147,,https://www.instagram.com/explore/locations/154144414654427
515,Lathrop High School,1.08E+14,64.8356,-147.733,901 Airport Way,https://www.instagram.com/explore/locations/108175175869567
516,Explore Fairbanks Alaska,1.51E+11,64.84592039,-147.7122584,"101 Dunkel St Ste 111, Fairbanks, Alaska",https://www.instagram.com/explore/locations/151437835956
517,Chena Pump House,4.73E+14,64.8512838,-147.7082089,,https://www.instagram.com/explore/locations/472866152729388
518,Lathrop Football Field,1.13E+14,64.83451323,-147.7327841,,https://www.instagram.com/explore/locations/113320078754986
519,"1st Battalion, 24th Infantry Regiment",4.60E+14,,,,https://www.instagram.com/explore/locations/459819984038977
520,Chena Bend Golf Course,1.82E+14,64.83012021,-147.5767577,,https://www.instagram.com/explore/locations/181982105210074
521,Ladd Army Airfield,1.14E+14,64.83969648,-147.607404,,https://www.instagram.com/explore/locations/113543398655914
522,Moose Mountain Ski Resort,2.73E+15,64.845139,-147.60475,,https://www.instagram.com/explore/locations/2733872796626697
523,The Road Less Traveled,1.79E+14,64.92107456,-147.5793136,,https://www.instagram.com/explore/locations/179375098884837
524,"IHG Army Hotel Ft. Wainwright, AK",1.61E+14,64.82292899,-147.6312598,3402 Santiago Ave,https://www.instagram.com/explore/locations/160669670676821
525,Lakloey Hill North Pole,1.67E+14,64.82690065,-147.516524,912 Ridgetop Rd,https://www.instagram.com/explore/locations/166953506800393
526,Riverview RV Park,1.12E+14,64.83392569,-147.5151445,"1316 Badger Rd, North Pole, Alaska",https://www.instagram.com/explore/locations/111547565550450
527,Emily Ticasua Ivanhoff Brown Elementary School,1.06E+14,64.82528162,-147.5322728,"Fairbanks, Alaska",https://www.instagram.com/explore/locations/105855499472426
528,Badger Den,1.44E+14,64.8348631,-147.5034032,"1447 old Badger Rd., North Pole, Alaska",https://www.instagram.com/explore/locations/144469229594099
529,Welcome To Fairbanks Alaska!!!,1.20E+14,64.84728455,-147.8648454,,https://www.instagram.com/explore/locations/120136871378121
530,Parks Highway,1.70E+14,64.8563417,-147.9075637,"Fairbanks, Alaska",https://www.instagram.com/explore/locations/170462916326536
531,Georgeson Botanical Garden,1.34E+14,64.8561,-147.859,,https://www.instagram.com/explore/locations/133533226686801
532,University of Alaska Museum - ALA Herbarium,2.99E+14,64.85849493,-147.8422819,"University of Alaska Museum of the North, Fairbanks, Alaska",https://www.instagram.com/explore/locations/299325983732983
533,"Goldhill, Fairbanks, Alaska",4.15E+14,64.86252137,-147.888343,,https://www.instagram.com/explore/locations/415418035197322
534,LARS - Robert G. White Large Animal Research Station,2.33E+14,64.87833283,-147.8669172,"2220 Yankovich Rd, Fairbanks, Alaska",https://www.instagram.com/explore/locations/233151010034103
535,College Road,1.69E+15,64.858086,-147.794272,"College Road, Fairbanks North Star",https://www.instagram.com/explore/locations/1694932963985422
536,"Fairbanks Industrial Park, Fairbanks, Alaska",2.80E+14,64.85375898,-147.7882372,,https://www.instagram.com/explore/locations/280270168742968
537,"Aurora, Fairbanks, Alaska",2.91E+14,64.85749808,-147.7648809,,https://www.instagram.com/explore/locations/290878194350775
538,UAF hiking & ski trails,1.02E+14,64.86849965,-147.8248686,,https://www.instagram.com/explore/locations/102283809831560
539,"Creamer's Field Migration Station, Fairbanks, Alaska",1.44E+15,64.8619751,-147.7410549,1300 College Rd,https://www.instagram.com/explore/locations/1443154089319050
540,Alaska Northern Lights Tours,1.47E+15,64.851352,-147.807798,"3515 Sandvick, Fairbanks, Alaska",https://www.instagram.com/explore/locations/1471399799757050
541,Creamers Field State Game Refuge,1.34E+14,64.86299239,-147.7375302,1300 College Rd,https://www.instagram.com/explore/locations/133718656672120
542,West Valley High School (Alaska),1.08E+14,64.8514,-147.825,,https://www.instagram.com/explore/locations/107808469242363
543,"Northeast City, Fairbanks, Alaska",4.11E+14,64.84778964,-147.6939355,,https://www.instagram.com/explore/locations/410736828980538
544,Tribe Jiu-jitsu Academy,1.10E+14,64.85061,-147.70269,32 College Rd ,https://www.instagram.com/explore/locations/110296974904387
545,Chena Dome Trailhead,6.17E+14,64.8585059,-147.7011044,"Fairbanks, Alaska",https://www.instagram.com/explore/locations/616709778404583
546,Wedgewood Wildlife Sanctuary,2.82E+14,64.860534,-147.719424,"212 Wedgewood Dr , Fairbanks, AK",https://www.instagram.com/explore/locations/282068778898310
547,"Downtown Fairbanks, Alasla",1.31E+14,64.8583684,-147.7020103,,https://www.instagram.com/explore/locations/130685824340396
548,Costco,3.23E+14,64.85307,-147.70671,48 College Road,https://www.instagram.com/explore/locations/323109774933977
549,Just The Tips- Boreal Infused Eats + Tea,9.05E+14,64.85059094,-147.7149867,"505 Illinois St. #3, Fairbanks, Alaska",https://www.instagram.com/explore/locations/904837349688145
550,The Banks Alehouse,1.51E+15,64.85439099,-147.6845423,"1243 Old Steese Hwy, Fairbanks, Alaska",https://www.instagram.com/explore/locations/1508432742746212
551,The Vintage Junky,1.60E+14,64.85041,-147.70505,"29 College Road, Suite #13, Fairbanks, Alaska",https://www.instagram.com/explore/locations/160283177991661
552,Cold Spot - for Healthy Pets,4.66E+14,,,,https://www.instagram.com/explore/locations/465676750155382
553,WOW Nails,1.06E+14,64.85015585,-147.6962433,"607 Old Steese Hwy suite A Fairbanks, AK 99701-3131, United States, Fairbanks, Alaska",https://www.instagram.com/explore/locations/105836465003863
554,Birch Hill Recreation Area,1.82E+15,64.86991871,-147.6465429,"E Birch Hill Rd, Fairbanks North Star, AK",https://www.instagram.com/explore/locations/1823195567918105
555,BLM / Alaska Fire Sevice,1.47E+14,64.8431901,-147.5913649,,https://www.instagram.com/explore/locations/146536898702912
556,Aurora Pointe Activity Center,7.86E+14,64.86266774,-147.4580484,"570 Funk Rd, Fairbanks, Alaska",https://www.instagram.com/explore/locations/785852158441609
557,Trans-Alaska Pipeline,1.76E+15,64.929064,-147.629615,"1671 Steese Hwy, Fairbanks, AK",https://www.instagram.com/explore/locations/1755602904719892
558,Jeaneu Alaska,1.11E+15,58.30046504,-134.4079796,,https://www.instagram.com/explore/locations/1107514725972357
559,"Juneau, Alaska",1.10E+14,58.29973,-134.40679,,https://www.instagram.com/explore/locations/109659625720552
560,"Juneuo, Alaska",2.66E+14,58.3003184,-134.404922,,https://www.instagram.com/explore/locations/266057667382598
561,Juneau Harbor,4.54E+14,58.29589261,-134.4000185,,https://www.instagram.com/explore/locations/454257254606952
562,Downtown Juneau,1.66E+15,58.304741,-134.392553,"Downtown Juneau, Juneau",https://www.instagram.com/explore/locations/1664704077078630
563,Port of Juneau -Alaska- USA,3.03E+14,58.29783128,-134.4032621,"1600 Harbor Way, Juneau, Alaska",https://www.instagram.com/explore/locations/302508026502612
564,Juneau Waterfront,1.13E+14,58.29939774,-134.4055102,,https://www.instagram.com/explore/locations/113357942090701
565,Alaska's Inside Passage,8.83E+14,,,,https://www.instagram.com/explore/locations/883196715059286
566,"Áak'w Ḵwáan Territory - Tlingit Country (Juneau, Alaska)",8.68E+14,58.30031,-134.40671,105 S. Seward St.,https://www.instagram.com/explore/locations/868479123282797
567,Tracy Arm Fjords National Park,2.02E+14,58.28783926,-134.4094849,"Juneau, AK",https://www.instagram.com/explore/locations/201925590309972
568,Red Dog Saloon,1.03E+14,58.299,-134.404,,https://www.instagram.com/explore/locations/102709889782895
569,Juneau Alaska. Whales!,1.76E+14,58.2994419,-134.4051399,"Juneau, Alaska",https://www.instagram.com/explore/locations/175717139156913
570,Tracy's King Crab Shack,1.20E+11,58.29716771,-134.4020452,"432 Franklin Street, Juneau, Alaska",https://www.instagram.com/explore/locations/120448230133
571,Gold Rush Sled Dog Summer Camp,4.34E+14,58.30181152,-134.4197202,"Juneau, Alaska",https://www.instagram.com/explore/locations/434462703232575
572,"Radiance Of The Sea In Juneau, Ak",1.18E+14,58.296491,-134.4019159,"Juneau, Alaska",https://www.instagram.com/explore/locations/118247394929176
573,Norwegian Bliss,6.26E+14,58.289085,-134.39697,,https://www.instagram.com/explore/locations/625900731114158
574,Juneau Mendenhall Glacier Float and River Rafting Excursion,2.72E+14,58.30125,-134.40854,"Juneau, AK",https://www.instagram.com/explore/locations/272083496526834
575,Dog Sled Discovery & Musher's Camp,4.06E+14,58.304601,-134.406349,"634 6th St , Juneau, AK",https://www.instagram.com/explore/locations/406009709594406
576,Tracy Arm Fjord Glacier Cruises,4.97E+14,58.29922,-134.40967,"76 Egan Dr, Juneau, AK",https://www.instagram.com/explore/locations/496539540772949
577,Mount Roberts Trail,2.09E+15,58.30726,-134.401377,490 S Franklin St,https://www.instagram.com/explore/locations/2087225294906276
578,Gastineau Channel,1.43E+14,58.30278883,-134.414118,,https://www.instagram.com/explore/locations/142525569097030
579,Alaska Cruise Northern Dream,5.31E+14,58.29995083,-134.4073899,"Juneau, Alaska",https://www.instagram.com/explore/locations/530926946984716
580,Alaska Tales,7.37E+14,58.29896,-134.40588,"Marine Way, Juneau, AK",https://www.instagram.com/explore/locations/737367209935392
581,Tracy Arm Adventure Bound Alaska,1.03E+15,58.299325,-134.409624,"76 Egan Dr, Ste 110, Juneau, Alaska",https://www.instagram.com/explore/locations/1034372959927694
582,Juneau Taku Glacier Helicopter and Airboat Expedition Excursion,7.37E+14,58.29924225,-134.4058225,"Juneau, AK",https://www.instagram.com/explore/locations/736980576692198
583,Juneau Borough,2.45E+14,58.3,-134.4166667,Juneau Borough,https://www.instagram.com/explore/locations/244680102211980
584,Mendenhall Center,1.44E+14,58.29966,-134.40659,,https://www.instagram.com/explore/locations/144030022298473
585,Juneau Tours and Whale Watch,1.70E+14,58.29912519,-134.4096646,"190 MILL ST, Juneau, AK",https://www.instagram.com/explore/locations/170359843087383
586,Perseverance Trai,3.93E+14,58.30689,-134.38494,"1001 Basin Rd, Juneau, AK",https://www.instagram.com/explore/locations/393289970855867
587,Seward Alaska,1.79E+15,58.29449593,-134.4012295,,https://www.instagram.com/explore/locations/1793350054235078
588,"Juneua, Alaska",4.78E+14,58.28211652,-134.3887744,,https://www.instagram.com/explore/locations/477921068888162
589,"Dawes Glacier, Alaska",1.19E+14,58.2892318,-134.3982347,,https://www.instagram.com/explore/locations/119345775396671
590,West Juneau,1.11E+14,58.291188,-134.437686,,https://www.instagram.com/explore/locations/110586932300870
591,Princess Cruises,3.95E+14,58.28961592,-134.3970506,,https://www.instagram.com/explore/locations/394954440545858
592,"State of Alaska, Skagway, Juneau, and Ketchikan",7.81E+14,58.28128806,-134.403518,"Juneau, Alaska",https://www.instagram.com/explore/locations/780642561975072
593,Holland America Lines,1.46E+14,58.28689,-134.38689,"151 Mill St, Juneau, AK",https://www.instagram.com/explore/locations/145638855480150
594,"Celebrity Solstice in Juneau, Alaska",1.90E+14,58.2894115,-134.3979805,"Juneau, Alaska",https://www.instagram.com/explore/locations/189723997855073
595,"Juneau, Alaska / USA Excursions",2.81E+14,58.28931,-134.39637,"1110 Jacobsen Dr, Juneau, AK 99801, EE. UU., Juneau, Alaska",https://www.instagram.com/explore/locations/280890302312484
596,"Juneau, Al",2.36E+14,58.28896668,-134.3968524,,https://www.instagram.com/explore/locations/235975073169757
597,"Gold Rush Dog Tours, LLC",1.90E+11,58.30175,-134.41149,"500 Sheep Creek Mine Rd, Juneau, Alaska",https://www.instagram.com/explore/locations/190316583410
598,Port of Whittier Alaska USA,1.49E+15,58.2924727,-134.3965279,,https://www.instagram.com/explore/locations/1485034738456256
599,Princess Cruise Lines,1.53E+14,58.29357994,-134.396621,"704 S Franklin St , Juneau, AK",https://www.instagram.com/explore/locations/153384211693277
600,"The Disney Wonder- Juneau, Alaska",2.14E+14,58.28850659,-134.3977296,"Juneau, AK",https://www.instagram.com/explore/locations/213755641998248
601,Mount Roberts Tramway,1.43E+14,58.2968548,-134.3870635,490 S Franklin St,https://www.instagram.com/explore/locations/142771689072686
602,Mount Roberts,1.44E+14,58.28583149,-134.327935,,https://www.instagram.com/explore/locations/144450895565170
603,Mt Roberts Nature Center,2.31E+14,58.2898885,-134.3844223,"1330 Eastaugh Way, Juneau, AK",https://www.instagram.com/explore/locations/231412790965532
604,Gastineau Peak,1.59E+15,58.2906,-134.344,,https://www.instagram.com/explore/locations/1590184314533219
605,The Shrine Of St Therese,2.50E+14,58.39152587,-134.5703347,,https://www.instagram.com/explore/locations/250462445055797
606,Juneau Tongass National Park,3.13E+14,58.31204043,-134.445375,,https://www.instagram.com/explore/locations/313024702113663
607,Juneau Jazz & Classics,2.35E+11,58.29982061,-134.4132852,"Juneau, Alaska",https://www.instagram.com/explore/locations/234660299745
608,"Gold Creek (Juneau, Alaska)",5.07E+14,58.298824,-134.419913,,https://www.instagram.com/explore/locations/506517532723084
609,Sheep Creek Beach,1.57E+15,58.29303185,-134.3959703,,https://www.instagram.com/explore/locations/1568478640035975
610,Cope Park,1.53E+14,58.30443518,-134.413392,"Cope Park Rd., Juneau, AK",https://www.instagram.com/explore/locations/153014554720797
611,Alaska State Capitol,1.43E+14,58.30205431,-134.4101554,,https://www.instagram.com/explore/locations/143343429010077
612,"Ms Eurodam In Juneau, Ak",3.12E+14,58.298695,-134.406061,,https://www.instagram.com/explore/locations/312255199603344
613,Juno Ak,3.49E+14,58.2959017,-134.4000385,,https://www.instagram.com/explore/locations/349204138501044
614,Taku Harbor,3.36E+14,58.29589261,-134.4000185,"Juneau, Alaska",https://www.instagram.com/explore/locations/336101310340198
615,"Misty Fjord National Park, Ketchikan",6.18E+14,58.29629399,-134.4004473,"Juneau, Alaska",https://www.instagram.com/explore/locations/617869408237551
616,Taku Store,1.47E+14,58.29540996,-134.3991448,"550 S Franklin St, Juneau, AK",https://www.instagram.com/explore/locations/146952528668167
617,Cable Car Juneau Alaska,6.52E+14,58.2965537,-134.4001728,,https://www.instagram.com/explore/locations/651669508256672
618,Timberline Bar and Grill,4.45E+14,58.29682317,-134.3869505,490 S Franklin St,https://www.instagram.com/explore/locations/444795782227263
619,Father Brown's Cross,1.83E+14,58.29592028,-134.3816339,"Juneau, Alaska",https://www.instagram.com/explore/locations/182870132642799
620,Juneau Arts & Culture Center,85365654020,58.29988,-134.41333,"350 Whittier St, Juneau, Alaska",https://www.instagram.com/explore/locations/85365654020
621,Pucker Wilson's,2.11E+15,58.2998,-134.4132,350 Whittier Street,https://www.instagram.com/explore/locations/2112164519018131
622,"Whale City Park, Juneau Ak",4.65E+14,58.3006417,-134.4151657,,https://www.instagram.com/explore/locations/465182760572049
623,JAHC,1.93E+14,58.29966965,-134.4134223,"350 Whittier St, Juneau, AK",https://www.instagram.com/explore/locations/192704364075494
624,Juneau Arts and Humanities,1.75E+14,58.29964757,-134.413371,"350 Whittier St, Ste 101, Juneau, Alaska",https://www.instagram.com/explore/locations/174987019249340
625,Bullwinkle's Pizza Parlor Downtown,1.63E+15,58.3004867,-134.4124675,"318 Willoughby Ave, Juneau, Alaska",https://www.instagram.com/explore/locations/1630702503836001
626,Juneau Capital Building,1.83E+14,58.30166667,-134.4197222,,https://www.instagram.com/explore/locations/183342781706404
627,Wings Airways/Taku Glacier Lodge,1.86E+11,58.29943,-134.40728,"2 Marine Way Ste 175, Juneau, Alaska",https://www.instagram.com/explore/locations/186365792898
628,The Hangar on the Wharf,1.78E+11,58.29929285,-134.4079795,"2 Marine Way, Ste 106, Juneau, Alaska",https://www.instagram.com/explore/locations/178389154402
629,Sealaska Heritage Institute,1.33E+14,58.30041,-134.40689,"105 S Seward St, Ste 201, Juneau, Alaska",https://www.instagram.com/explore/locations/133438590063380
630,Douglas Boat Harbor,1.65E+14,58.29941628,-134.4071028,,https://www.instagram.com/explore/locations/165329950298229
631,Barnaby Brewing Company,1.69E+15,58.29980173,-134.4060865,"165 Shattuck Way, Juneau, Alaska",https://www.instagram.com/explore/locations/1694714070768567
632,Juneau City Hall,2.61E+14,58.29954909,-134.4063497,,https://www.instagram.com/explore/locations/261431467300875
633,Pel'menis,3.10E+14,58.29943,-134.40728,#2 Marine Way,https://www.instagram.com/explore/locations/310389622354430
634,Ebner Falls,1.20E+14,58.30790513,-134.3815837,,https://www.instagram.com/explore/locations/119953184720227
635,Flume Trail Juneau Alaska,4.20E+14,58.3070166,-134.4048757,,https://www.instagram.com/explore/locations/420393581350153
636,Alaska Governor's Mansion,1.03E+14,58.302652,-134.414956,120 4th St,https://www.instagram.com/explore/locations/103102873063269
637,Basin Road,1.87E+15,58.30299125,-134.4081228,,https://www.instagram.com/explore/locations/1869809763313194
638,House of Wickersham,8.11E+14,58.30361111,-134.4113889,,https://www.instagram.com/explore/locations/810822002313195
639,Last Chance Mining Museum,1.49E+15,58.30666667,-134.3852778,,https://www.instagram.com/explore/locations/1489082764710118
640,"Starr Hill, Juneau",2.57E+14,58.3042,-134.404,,https://www.instagram.com/explore/locations/256542571197091
641,"Cathedral of the Nativity of the Blessed Virgin Mary (Juneau, Alaska)",3.57E+14,58.3034,-134.408,,https://www.instagram.com/explore/locations/357203047648628
642,Chicken Yard Park,1.44E+14,58.30428434,-134.4058791,"Juneau, AK",https://www.instagram.com/explore/locations/143657552643739
643,Perserverance Trail,2.59E+14,58.31633691,-134.3337805,,https://www.instagram.com/explore/locations/259104294270305
644,Mount Juneau,1.03E+14,58.3194,-134.406,,https://www.instagram.com/explore/locations/102625853123974
645,Mt. Juneau Summit,3.49E+14,58.31898978,-134.4084512,,https://www.instagram.com/explore/locations/348966708568129
646,Jualpa Mining Camp,8.63E+14,58.30702756,-134.3854419,"1001 Basin Rd , Juneau, AK",https://www.instagram.com/explore/locations/863345770379968
